[
  {
    "id": "bangkok-arabica-empire-tower",
    "Nombre": "% Arabica (Empire Tower)",
    "Tipo": "Comida",
    "Horario": "Tarde",
    "Ciudad": "Bangkok",
    "Tiempo": "1h",
    "Esfuerzo": "Bajo",
    "Costo": "150 THB+",
    "Descripción": "Café minimalista con vista infinita desde el piso 55.",
    "Detalle": "Ofrece una de las vistas urbanas más espectaculares de Bangkok sin pagar la entrada de un rooftop.",
    "NotaIA": "El café es de especialidad y el diseño del local es totalmente blanco.",
    "LATLON": "13.7215, 100.5298",
    "Image": "Link",
    "lat": 13.7215,
    "lon": 100.5298,
    "imageUrl": "/thumbs/comida.svg",
    "shortDescription": "Café minimalista con vista infinita desde el piso 55."
  },
  {
    "id": "bangkok-100-shop-jodd-fairs",
    "Nombre": "100 Shop (Jodd Fairs)",
    "Tipo": "Compras",
    "Horario": "Mañana",
    "Ciudad": "Bangkok",
    "Tiempo": "1h",
    "Esfuerzo": "Bajo",
    "Costo": "100 THB",
    "Descripción": "Tienda de ropa donde (casi) todo cuesta 3€ / 100 Bahts.",
    "Detalle": "Camisetas básicas, tops y faldas por precios bajísimos. Calidad decente para el precio.",
    "NotaIA": "Ubicada dentro del mercado nocturno Jodd Fairs.",
    "LATLON": "13.7544, 100.5663",
    "Image": "Link",
    "lat": 13.7544,
    "lon": 100.5663,
    "imageUrl": "/thumbs/compras.svg",
    "shortDescription": "Tienda de ropa donde (casi) todo cuesta 3€ / 100 Bahts."
  },
  {
    "id": "bangkok-aether-rooftop-dusit-central-park",
    "Nombre": "Aether Rooftop (Dusit Central Park)",
    "Tipo": "Visita",
    "Horario": "Noche",
    "Ciudad": "Bangkok",
    "Tiempo": "2h",
    "Esfuerzo": "Bajo",
    "Costo": "Gratis (entrada)",
    "Descripción": "Nueva azotea 360° con vistas espectaculares de la ciudad.",
    "Detalle": "Ubicado en el piso 44 de Dusit Central Park. Entrada gratuita, ideal para tomar un cóctel al atardecer.",
    "NotaIA": "Es un spot muy nuevo y viral, ve con ropa casual-elegante para asegurar el acceso.",
    "LATLON": "13.7291, 100.5375",
    "Image": "Link",
    "lat": 13.7291,
    "lon": 100.5375,
    "imageUrl": "/thumbs/visita.svg",
    "shortDescription": "Nueva azotea 360° con vistas espectaculares de la ciudad."
  },
  {
    "id": "bangkok-airport-rail-link",
    "Nombre": "Airport Rail Link",
    "Tipo": "Transporte",
    "Horario": "Mañana",
    "Ciudad": "Bangkok",
    "Tiempo": "45m",
    "Esfuerzo": "Bajo",
    "Costo": "45 THB",
    "Descripción": "El tren que conecta el aeropuerto Suvarnabhumi con el centro.",
    "Detalle": "Se encuentra en el sótano (Planta B). Es la forma más rápida de evitar el tráfico. Llega hasta Phaya Thai.",
    "NotaIA": "Al comprar el ticket te dan un \"token\" (moneda roja) que debes guardar hasta el final.",
    "LATLON": "13.6899, 100.7501",
    "Image": "Link",
    "lat": 13.6899,
    "lon": 100.7501,
    "imageUrl": "/thumbs/transporte.svg",
    "shortDescription": "El tren que conecta el aeropuerto Suvarnabhumi con el centro."
  },
  {
    "id": "comida-alerta-msg-phong-churot",
    "Nombre": "Alerta MSG (Phong Churot)",
    "Tipo": "Consejo",
    "Horario": "Da Igual",
    "Ciudad": "Comida",
    "Tiempo": "-",
    "Esfuerzo": "Bajo",
    "Costo": "-",
    "Descripción": "El \"truco\" secreto por el que la comida sabe tan bien.",
    "Detalle": "Los locales añaden mucho MSG a los platos. Si quieres evitarlo di: \"Mai sai phong chu rot\".",
    "NotaIA": "Puede causar hinchazón o sed excesiva si no estás acostumbrado.",
    "LATLON": "-",
    "Image": "Link",
    "lat": 13.756331,
    "lon": 100.501762,
    "imageUrl": "/thumbs/consejo.svg",
    "shortDescription": "El \"truco\" secreto por el que la comida sabe tan bien.",
    "approxLocation": true
  },
  {
    "id": "bangkok-amaranth-spa-kimpton",
    "Nombre": "Amaranth Spa (Kimpton)",
    "Tipo": "Spa",
    "Horario": "Da Igual",
    "Ciudad": "Bangkok",
    "Tiempo": "1.5h",
    "Esfuerzo": "Bajo",
    "Costo": "3000 THB+",
    "Descripción": "Spa boutique de diseño en hotel de lujo.",
    "Detalle": "Dentro del hotel Kimpton Maa-Lai. Tratamientos sofisticados y entorno muy moderno.",
    "NotaIA": "Es una experiencia \"high-end\", menos tradicional y más sensorial.",
    "LATLON": "13.7391, 100.5430",
    "Image": "Link",
    "lat": 13.7391,
    "lon": 100.543,
    "imageUrl": "/thumbs/spa.svg",
    "shortDescription": "Spa boutique de diseño en hotel de lujo."
  },
  {
    "id": "chiang-mai-antique-massage-cm",
    "Nombre": "Antique Massage CM",
    "Tipo": "Spa",
    "Horario": "Da Igual",
    "Ciudad": "Chiang Mai",
    "Tiempo": "1.5h",
    "Esfuerzo": "Bajo",
    "Costo": "500 THB",
    "Descripción": "Masaje tradicional en ambiente histórico.",
    "Detalle": "Excelente relación calidad/precio. Famoso por su técnica de masaje tailandés profundo.",
    "NotaIA": "Suele estar muy solicitado; reservar el mismo día por la mañana.",
    "LATLON": "18.7885, 98.9850",
    "Image": "Link",
    "lat": 18.7885,
    "lon": 98.985,
    "imageUrl": "/thumbs/spa.svg",
    "shortDescription": "Masaje tradicional en ambiente histórico."
  },
  {
    "id": "tailandia-app-bolt",
    "Nombre": "App Bolt",
    "Tipo": "Consejo",
    "Horario": "Mañana",
    "Ciudad": "Tailandia",
    "Tiempo": "-",
    "Esfuerzo": "Bajo",
    "Costo": "Económico",
    "Descripción": "Aplicación de transporte similar a Uber pero más barata.",
    "Detalle": "Bolt es más barata que Grab en Tailandia. Pide moto-taxi si hay mucho tráfico.",
    "NotaIA": "Grab permite pago con tarjeta; Bolt suele ser efectivo (cash).",
    "LATLON": "13.7563, 100.5018",
    "Image": "Link",
    "lat": 13.7563,
    "lon": 100.5018,
    "imageUrl": "/thumbs/consejo.svg",
    "shortDescription": "Aplicación de transporte similar a Uber pero más barata."
  },
  {
    "id": "bangkok-app-muvmi",
    "Nombre": "App MuvMi",
    "Tipo": "Consejo",
    "Horario": "Mañana",
    "Ciudad": "Bangkok",
    "Tiempo": "10m",
    "Esfuerzo": "Bajo",
    "Costo": "Económico",
    "Descripción": "Tuk-Tuks eléctricos compartidos con precio fijo por App.",
    "Detalle": "No te pueden estafar porque el precio sale en la app. Tiene paradas fijas.",
    "NotaIA": "Funciona genial para distancias cortas dentro de barrios turísticos.",
    "LATLON": "13.7563, 100.5018",
    "Image": "Link",
    "lat": 13.7563,
    "lon": 100.5018,
    "imageUrl": "/thumbs/consejo.svg",
    "shortDescription": "Tuk-Tuks eléctricos compartidos con precio fijo por App."
  },
  {
    "id": "bangkok-asiatique-the-riverfront",
    "Nombre": "Asiatique The Riverfront",
    "Tipo": "Visita",
    "Horario": "Tarde/Noche",
    "Ciudad": "Bangkok",
    "Tiempo": "2-3 hs",
    "Esfuerzo": "Bajo",
    "Costo": "Gratis",
    "Descripción": "Mercado/riverfront con restaurantes, compras y paseo nocturno a orillas del río.",
    "Detalle": "Mejor después de las 17:00. Se llega fácil en ferry desde BTS Saphan Taksin (según operación).",
    "NotaIA": "Buen lugar para cenar y caminar sin el caos de mercados callejeros.",
    "LATLON": "-",
    "Image": "Link",
    "lat": 13.704975,
    "lon": 100.501925,
    "imageUrl": "/thumbs/visita.svg",
    "shortDescription": "Mercado/riverfront con restaurantes, compras y paseo nocturno a orillas del río."
  },
  {
    "id": "chiang-mai-baan-thai-cookery-school",
    "Nombre": "Baan Thai Cookery School",
    "Tipo": "Gastronomía",
    "Horario": "nan",
    "Ciudad": "Chiang Mai",
    "Tiempo": "5h",
    "Esfuerzo": "Bajo",
    "Costo": "1200 THB",
    "Descripción": "Escuela de cocina en grupos reducidos.",
    "Detalle": "Clases prácticas en una casa tradicional. Enfoque en platos del norte (Khao Soi).",
    "NotaIA": "Aprenderás a hacer la pasta de curry desde cero.",
    "LATLON": "18.7834, 98.9912",
    "Image": "Link",
    "lat": 18.7834,
    "lon": 98.9912,
    "imageUrl": "/thumbs/gastronomia.svg",
    "shortDescription": "Escuela de cocina en grupos reducidos."
  },
  {
    "id": "chiang-rai-baandam-museum-casa-negra",
    "Nombre": "Baandam Museum (Casa Negra)",
    "Tipo": "Visita",
    "Horario": "Da Igual",
    "Ciudad": "Chiang Rai",
    "Tiempo": "1.5h",
    "Esfuerzo": "Bajo",
    "Costo": "80 THB",
    "Descripción": "Conjunto de casas oscuras con arte macabro.",
    "Detalle": "Obra de Thawan Duchanee. Decoración con pieles, huesos y maderas talladas.",
    "NotaIA": "Es el contrapunto artístico al Templo Blanco.",
    "LATLON": "19.9920, 99.8601",
    "Image": "Link",
    "lat": 19.992,
    "lon": 99.8601,
    "imageUrl": "/thumbs/visita.svg",
    "shortDescription": "Conjunto de casas oscuras con arte macabro."
  },
  {
    "id": "phuket-krabi-bahia-de-phang-nga-kayak",
    "Nombre": "Bahía de Phang Nga (Kayak)",
    "Tipo": "Visita",
    "Horario": "Mañana",
    "Ciudad": "Phuket / Krabi",
    "Tiempo": "8h",
    "Esfuerzo": "Medio",
    "Costo": "2500 THB",
    "Descripción": "Paisaje de formaciones calizas y cuevas marinas.",
    "Detalle": "Se visita en lanchas rápidas. El punto icónico es la isla de James Bond. Se recomienda el kayak para entrar en lagunas internas.",
    "NotaIA": "Ideal ir temprano para evitar los cientos de barcos que llegan al mediodía.",
    "LATLON": "8.2439, 98.5060",
    "Image": "Link",
    "lat": 8.2439,
    "lon": 98.506,
    "imageUrl": "/thumbs/visita.svg",
    "shortDescription": "Paisaje de formaciones calizas y cuevas marinas."
  },
  {
    "id": "chiang-mai-bami-jae-hua",
    "Nombre": "Bami Jae Hua",
    "Tipo": "Comida",
    "Horario": "Da Igual",
    "Ciudad": "Chiang Mai",
    "Tiempo": "1h",
    "Esfuerzo": "Bajo",
    "Costo": "80-150 THB",
    "Descripción": "Noodles chinos famosos y Gyozas de queso.",
    "Detalle": "Especialidad en noodles estirados a mano y dumplings virales.",
    "NotaIA": "Ubicado en la zona gastronómica de Chiang Mai, ideal para cenar informal.",
    "LATLON": "18.7885, 98.9850",
    "Image": "Link",
    "lat": 18.7885,
    "lon": 98.985,
    "imageUrl": "/thumbs/comida.svg",
    "shortDescription": "Noodles chinos famosos y Gyozas de queso."
  },
  {
    "id": "bangkok-barco-publico-orange-flag",
    "Nombre": "Barco Público (Orange Flag)",
    "Tipo": "Transporte",
    "Horario": "Mañana",
    "Ciudad": "Bangkok",
    "Tiempo": "30-60m",
    "Esfuerzo": "Bajo",
    "Costo": "16 THB",
    "Descripción": "La forma más barata y escénica de moverte por el río.",
    "Detalle": "Busca siempre la bandera naranja. Conecta los principales templos y muelles.",
    "NotaIA": "Es mucho más barato que el barco azul (Tourist Boat) que cuesta 150 THB.",
    "LATLON": "13.7194, 100.5126",
    "Image": "Link",
    "lat": 13.7194,
    "lon": 100.5126,
    "imageUrl": "/thumbs/transporte.svg",
    "shortDescription": "La forma más barata y escénica de moverte por el río."
  },
  {
    "id": "koh-samui-big-buddha-samui",
    "Nombre": "Big Buddha Samui",
    "Tipo": "Visita",
    "Horario": "Da Igual",
    "Ciudad": "Koh Samui",
    "Tiempo": "1h",
    "Esfuerzo": "Bajo",
    "Costo": "Gratis",
    "Descripción": "Estatua dorada de 12m visible desde el aire.",
    "Detalle": "Situada en una pequeña isla conectada por una calzada. Gran vista de la costa norte.",
    "NotaIA": "Evita ir al mediodía; el suelo quema mucho (se entra descalzo).",
    "LATLON": "9.5707, 100.0604",
    "Image": "Link",
    "lat": 9.5707,
    "lon": 100.0604,
    "imageUrl": "/thumbs/visita.svg",
    "shortDescription": "Estatua dorada de 12m visible desde el aire."
  },
  {
    "id": "bangkok-bkk-thai-cooking-academy",
    "Nombre": "BKK Thai Cooking Academy",
    "Tipo": "Gastronomía",
    "Horario": "Da Igual",
    "Ciudad": "Bangkok",
    "Tiempo": "4h",
    "Esfuerzo": "Bajo",
    "Costo": "1500 THB",
    "Descripción": "Clase de cocina con visita al mercado local.",
    "Detalle": "Incluye tour por mercado para elegir ingredientes y preparación de 4-5 platos.",
    "NotaIA": "Te dan un recetario digital al finalizar.",
    "LATLON": "13.7065, 100.6015",
    "Image": "Link",
    "lat": 13.7065,
    "lon": 100.6015,
    "imageUrl": "/thumbs/gastronomia.svg",
    "shortDescription": "Clase de cocina con visita al mercado local."
  },
  {
    "id": "bangkok-compras-clave-en-7-eleven-sucursal-grande-asok",
    "Nombre": "Compras clave en 7-Eleven (sucursal grande - Asok)",
    "Tipo": "Compras",
    "Horario": "Da Igual",
    "Ciudad": "Bangkok",
    "Tiempo": "30m",
    "Esfuerzo": "Bajo",
    "Costo": "≈ 500–700 THB",
    "Descripción": "Hacé una parada en el 7-Eleven más grande de Bangkok (Asok, sucursal 2457/02457, 2 pisos) y comprá todo esto de una sola vez",
    "Detalle": "Ready Net SIM True 5G (15GB / 30 días): pedila en caja; requiere pasaporte físico. Evitá comprar SIM en el aeropuerto (más cara). • Electrolitos Neo‑Lyte: sobres para mezclar con agua (más efectivos que bebidas deportivas) para calor/excursiones. • Fresh Doze: tapitas con polvo multivitamínico para botellas (colágeno rosa / L‑carnitina verde / vitaminas morado). Se activa presionando el tapón.• Flying Rabbit: emulsión blanca para acidez/malestar estomacal por street food (si no está en 7-Eleven, buscar en farmacia).• Gaviscon (sobres): para acidez tras comida picante (Tom Yum, etc.).• Repelente Soffell (paquete rosa): efectivo contra mosquitos (dengue).• Thai Red Bull (frasco de vidrio): energizante local sin gas, mucho más fuerte que el internacional (usar con moderación).• Ya Dom (inhalador): útil para mareos por calor / congestión (si lo ves, llevate uno).",
    "NotaIA": "Si no encontrás Flying Rabbit o Ya Dom en esta sucursal, generalmente están en farmacias cercanas. Para SIM: pasaporte original.",
    "LATLON": "13.74387, 100.56208",
    "Image": "Link",
    "lat": 13.74387,
    "lon": 100.56208,
    "imageUrl": "/thumbs/compras.svg",
    "shortDescription": "Hacé una parada en el 7-Eleven más grande de Bangkok (Asok, sucursal 2457/02457, 2 pisos) y comprá todo esto…"
  },
  {
    "id": "phuket-cabalgata-costera-phuket",
    "Nombre": "Cabalgata Costera Phuket",
    "Tipo": "Experiencia",
    "Horario": "Mañana",
    "Ciudad": "Phuket",
    "Tiempo": "2h",
    "Esfuerzo": "Medio",
    "Costo": "2000 THB",
    "Descripción": "Paseo a caballo por la playa al atardecer.",
    "Detalle": "Recorrido por la orilla del mar. Muy fotogénico.",
    "NotaIA": "Reservar para el horario de las 17:30 para mejores fotos.",
    "LATLON": "8.0050, 98.2950",
    "Image": "Link",
    "lat": 8.005,
    "lon": 98.295,
    "imageUrl": "/thumbs/experiencia.svg",
    "shortDescription": "Paseo a caballo por la playa al atardecer."
  },
  {
    "id": "chiang-mai-cabalgata-rural-cm",
    "Nombre": "Cabalgata Rural CM",
    "Tipo": "Experiencia",
    "Horario": "Mañana",
    "Ciudad": "Chiang Mai",
    "Tiempo": "2.5h",
    "Esfuerzo": "Medio",
    "Costo": "1500 THB",
    "Descripción": "Paseo a caballo por campos y senderos.",
    "Detalle": "Recorrido guiado por zonas rurales fuera del casco urbano. Ritmo tranquilo.",
    "NotaIA": "Ideal para ver el paisaje de montaña sin caminar tanto.",
    "LATLON": "18.8200, 98.9500",
    "Image": "Link",
    "lat": 18.82,
    "lon": 98.95,
    "imageUrl": "/thumbs/experiencia.svg",
    "shortDescription": "Paseo a caballo por campos y senderos."
  },
  {
    "id": "phuket-carnival-magic",
    "Nombre": "Carnival Magic",
    "Tipo": "Visita",
    "Horario": "Tarde",
    "Ciudad": "Phuket",
    "Tiempo": "4h",
    "Esfuerzo": "Bajo",
    "Costo": "2100 THB",
    "Descripción": "Parque temático de luces y carnaval.",
    "Detalle": "Récord mundial en estructuras de luces LED. Muy familiar y visual.",
    "NotaIA": "Ubicado en Kamala, cerca del Novotel.",
    "LATLON": "7.9555, 98.2872",
    "Image": "Link",
    "lat": 7.9555,
    "lon": 98.2872,
    "imageUrl": "/thumbs/visita.svg",
    "shortDescription": "Parque temático de luces y carnaval."
  },
  {
    "id": "bangkok-cave-fantasy-mbk",
    "Nombre": "Cave Fantasy (MBK)",
    "Tipo": "Visita",
    "Horario": "Noche",
    "Ciudad": "Bangkok",
    "Tiempo": "1h",
    "Esfuerzo": "Bajo",
    "Costo": "~300 THB",
    "Descripción": "Nueva atracción inmersiva con luces, espejos y visuales.",
    "Detalle": "Ubicada en la planta 4 del MBK Center (Zona A). Ideal para fans de los espacios \"instagrammables\" y arte digital.",
    "NotaIA": "Se inauguró en enero de 2026; es muy nueva.",
    "LATLON": "13.7444, 100.5299",
    "Image": "Link",
    "lat": 13.7444,
    "lon": 100.5299,
    "imageUrl": "/thumbs/visita.svg",
    "shortDescription": "Nueva atracción inmersiva con luces, espejos y visuales."
  },
  {
    "id": "tailandia-centipede-packet",
    "Nombre": "Centipede Packet",
    "Tipo": "Consejo",
    "Horario": "Da Igual",
    "Ciudad": "Tailandia",
    "Tiempo": "-",
    "Esfuerzo": "Bajo",
    "Costo": "20 THB",
    "Descripción": "Medicina tradicional para la tos y el dolor de garganta.",
    "Detalle": "Se reconoce por la imagen de un ciempiés en el paquete. Es muy efectivo a pesar de su apariencia.",
    "NotaIA": "Útil si el aire acondicionado de los aviones o trenes te afecta la garganta.",
    "LATLON": "13.7563, 100.5018",
    "Image": "Link",
    "lat": 13.7563,
    "lon": 100.5018,
    "imageUrl": "/thumbs/consejo.svg",
    "shortDescription": "Medicina tradicional para la tos y el dolor de garganta."
  },
  {
    "id": "bangkok-chatuchak-weekend-market",
    "Nombre": "Chatuchak Weekend Market",
    "Tipo": "Compras",
    "Horario": "Mañana/Tarde",
    "Ciudad": "Bangkok",
    "Tiempo": "2-4 hs",
    "Esfuerzo": "Bajo",
    "Costo": "Gratis",
    "Descripción": "El mercado más grande de Bangkok: ropa, souvenirs, arte, comida y plantas (ideal fin de semana).",
    "Detalle": "Ir sábado o domingo. Llegar antes del mediodía para menos calor y mejores precios. MRT: Kamphaeng Phet o Chatuchak Park.",
    "NotaIA": "Si tu itinerario cae sábado/domingo, reservá 1 bloque grande acá.",
    "LATLON": "13.80083, 100.55139",
    "Image": "Link",
    "lat": 13.80083,
    "lon": 100.55139,
    "imageUrl": "/thumbs/compras.svg",
    "shortDescription": "El mercado más grande de Bangkok: ropa, souvenirs, arte, comida y plantas (ideal fin de semana)."
  },
  {
    "id": "chiang-rai-choui-fong-tea",
    "Nombre": "Choui Fong Tea",
    "Tipo": "Visita",
    "Horario": "Mañana",
    "Ciudad": "Chiang Rai",
    "Tiempo": "1.5h",
    "Esfuerzo": "Bajo",
    "Costo": "Gratis",
    "Descripción": "Plantaciones de té con arquitectura moderna.",
    "Detalle": "Campos verdes infinitos y una cafetería de diseño donde probar postres de matcha.",
    "NotaIA": "Las vistas desde la terraza de la cafetería son las mejores de la zona.",
    "LATLON": "20.1997, 99.8166",
    "Image": "Link",
    "lat": 20.1997,
    "lon": 99.8166,
    "imageUrl": "/thumbs/visita.svg",
    "shortDescription": "Plantaciones de té con arquitectura moderna."
  },
  {
    "id": "bangkok-column-bangkok-hotel",
    "Nombre": "Column Bangkok Hotel",
    "Tipo": "Hotel",
    "Horario": "Da Igual",
    "Ciudad": "Bangkok",
    "Tiempo": "-",
    "Esfuerzo": "Bajo",
    "Costo": "-",
    "Descripción": "Tu base moderna en el corazón de Sukhumvit. Sukhumvit Soi 16.",
    "Detalle": "Ubicado en Soi 16. Habitaciones con cocina y vistas increíbles. Cerca de BTS Asok y MRT Sukhumvit. Excelente para moverse y estar cerca de la movida nocturna.",
    "NotaIA": "Tip Logístico: Ideal para el último día (09/03). Puedes dejar las maletas tras el check-out y volver por ellas antes de ir al aeropuerto a las 20:30.",
    "LATLON": "13.7314, 100.5612",
    "Image": "Link",
    "lat": 13.7314,
    "lon": 100.5612,
    "imageUrl": "/thumbs/hotel.svg",
    "shortDescription": "Tu base moderna en el corazón de Sukhumvit. Sukhumvit Soi 16."
  },
  {
    "id": "bangkok-chiang-mai-combo-transporte-economico",
    "Nombre": "Combo Transporte Económico",
    "Tipo": "Consejo",
    "Horario": "Noche",
    "Ciudad": "Bangkok / Chiang Mai",
    "Tiempo": "-",
    "Esfuerzo": "Bajo",
    "Costo": "Variable",
    "Descripción": "Estrategia integral para moverte por el país ahorrando.",
    "Detalle": "Combina el Airport Rail Link para traslados al aeropuerto, el Tren Nocturno Nº 9 para viajar a Chiang Mai ahorrando una noche de hotel, y la app MuvMi para trayectos cortos en Tuk-Tuk eléctrico.",
    "NotaIA": "Cubre larga, media y corta distancia de forma eficiente y evita las estafas de precios a turistas.",
    "LATLON": "13.7563, 100.5018",
    "Image": "Link",
    "lat": 13.7563,
    "lon": 100.5018,
    "imageUrl": "/thumbs/consejo.svg",
    "shortDescription": "Estrategia integral para moverte por el país ahorrando."
  },
  {
    "id": "tailandia-comida-callejera-precio-justo",
    "Nombre": "Comida Callejera (Precio Justo)",
    "Tipo": "Comida",
    "Horario": "Mañana",
    "Ciudad": "Tailandia",
    "Tiempo": "30m",
    "Esfuerzo": "Bajo",
    "Costo": "50-100 THB",
    "Descripción": "Referencia de precio para no pagar de más en la calle.",
    "Detalle": "Un plato estándar de Pad Thai o Fried Rice debe costar entre 50 y 100 THB en puestos locales.",
    "NotaIA": "Si el precio supera los 150 THB en un puesto de calle, estás pagando \"impuesto al turista\".",
    "LATLON": "13.7563, 100.5018",
    "Image": "Link",
    "lat": 13.7563,
    "lon": 100.5018,
    "imageUrl": "/thumbs/comida.svg",
    "shortDescription": "Referencia de precio para no pagar de más en la calle."
  },
  {
    "id": "chiang-mai-dantewada-land-of-angels",
    "Nombre": "Dantewada Land of Angels",
    "Tipo": "Visita",
    "Horario": "Tarde",
    "Ciudad": "Chiang Mai",
    "Tiempo": "2h",
    "Esfuerzo": "Bajo",
    "Costo": "80 THB",
    "Descripción": "Parque temático natural con cascadas y flores.",
    "Detalle": "Es un entorno artificial diseñado específicamente para fotografías de Instagram. Tiene cuevas y vegetación exuberante.",
    "NotaIA": "Ubicado a unos 45-60 min del centro de Chiang Mai.",
    "LATLON": "19.1415, 98.9272",
    "Image": "Link",
    "lat": 19.1415,
    "lon": 98.9272,
    "imageUrl": "/thumbs/visita.svg",
    "shortDescription": "Parque temático natural con cascadas y flores."
  },
  {
    "id": "cerca-cm-doi-inthanon-park",
    "Nombre": "Doi Inthanon Park",
    "Tipo": "Naturaleza",
    "Horario": "Mañana",
    "Ciudad": "Cerca CM",
    "Tiempo": "10h",
    "Esfuerzo": "Medio",
    "Costo": "300 THB",
    "Descripción": "El pico más alto de Tailandia.",
    "Detalle": "Incluye las Pagodas Gemelas, cascadas y senderos de bosque nuboso.",
    "NotaIA": "Imprescindible llevar una camperita; arriba hace frío (incluso 10°C).",
    "LATLON": "18.5882, 98.4870",
    "Image": "Link",
    "lat": 18.5882,
    "lon": 98.487,
    "imageUrl": "/thumbs/naturaleza.svg",
    "shortDescription": "El pico más alto de Tailandia."
  },
  {
    "id": "phuket-elephant-dinner-phuket",
    "Nombre": "Elephant Dinner (Phuket)",
    "Tipo": "Experiencia",
    "Horario": "Mañana",
    "Ciudad": "Phuket",
    "Tiempo": "2h",
    "Esfuerzo": "Bajo",
    "Costo": "Medio",
    "Descripción": "Cena en la playa viendo elefantes pasar.",
    "Detalle": "Ubicado en una playa privada cerca de Patong/Kamala. Muy visual para el atardecer.",
    "NotaIA": "NotaIA: Asegúrate de que el lugar siga prácticas de bienestar animal antes de reservar.",
    "LATLON": "7.8920, 98.2950",
    "Image": "Link",
    "lat": 7.892,
    "lon": 98.295,
    "imageUrl": "/thumbs/experiencia.svg",
    "shortDescription": "Cena en la playa viendo elefantes pasar."
  },
  {
    "id": "chiang-mai-elephant-nature-park",
    "Nombre": "Elephant Nature Park",
    "Tipo": "Ético",
    "Horario": "Mañana",
    "Ciudad": "Chiang Mai",
    "Tiempo": "8h",
    "Esfuerzo": "Medio",
    "Costo": "2500 THB+",
    "Descripción": "Santuario ético de elefantes rescatados.",
    "Detalle": "No se montan. Solo observación, alimentación y baño.",
    "NotaIA": "Reserva con meses de antelación; los cupos éticos vuelan.",
    "LATLON": "19.2154, 98.8604",
    "Image": "Link",
    "lat": 19.2154,
    "lon": 98.8604,
    "imageUrl": "/thumbs/etico.svg",
    "shortDescription": "Santuario ético de elefantes rescatados."
  },
  {
    "id": "estambul-escala-en-estambul",
    "Nombre": "Escala en Estambul",
    "Tipo": "Logística",
    "Horario": "Da Igual",
    "Ciudad": "Estambul",
    "Tiempo": "17h",
    "Esfuerzo": "Bajo",
    "Costo": "Variable",
    "Descripción": "Tiempo de espera antes del tramo final a Bangkok.",
    "Detalle": "Sale el 18/02 15:30. Puedes aplicar al tour gratis de Turkish o usar el hotel de escala.",
    "NotaIA": "Si el ticket lo permite, Turkish ofrece hotel gratis por escalas largas (verificar condiciones).",
    "LATLON": "41.2752, 28.7519",
    "Image": "Link",
    "lat": 41.2752,
    "lon": 28.7519,
    "imageUrl": "/thumbs/logistica.svg",
    "shortDescription": "Tiempo de espera antes del tramo final a Bangkok."
  },
  {
    "id": "bangkok-estrategia-ahorro-diario",
    "Nombre": "Estrategia Ahorro Diario",
    "Tipo": "Consejo",
    "Horario": "Tarde",
    "Ciudad": "Bangkok",
    "Tiempo": "-",
    "Esfuerzo": "Bajo",
    "Costo": "< 500 THB",
    "Descripción": "Cómo vivir la ciudad con un presupuesto bajo sin perder calidad.",
    "Detalle": "Combina comer en la planta baja de Iconsiam (SookSiam), que tiene precios de mercado local pero ambiente limpio, con el uso del Orange Flag Boat (16 THB) para recorrer el río.",
    "NotaIA": "Esta combinación permite visitar lugares de lujo y moverte por el centro por menos de 15€ al día.",
    "LATLON": "13.7274, 100.5103",
    "Image": "Link",
    "lat": 13.7274,
    "lon": 100.5103,
    "imageUrl": "/thumbs/consejo.svg",
    "shortDescription": "Cómo vivir la ciudad con un presupuesto bajo sin perder calidad."
  },
  {
    "id": "inmigracion-formulario-tdac",
    "Nombre": "Formulario TDAC",
    "Tipo": "Consejo",
    "Horario": "Tarde",
    "Ciudad": "Inmigración",
    "Tiempo": "5m",
    "Esfuerzo": "Bajo",
    "Costo": "Gratis",
    "Descripción": "Tarjeta Digital de Llegada obligatoria desde mayo 2025.",
    "Detalle": "Reemplaza al papel TM6. Se rellena online hasta 3 días antes. Te dan un QR.",
    "NotaIA": "No aceptes ayuda de webs que cobren; es un trámite 100% gratuito.",
    "LATLON": "13.6899, 100.7501",
    "Image": "Link",
    "lat": 13.6899,
    "lon": 100.7501,
    "imageUrl": "/thumbs/consejo.svg",
    "shortDescription": "Tarjeta Digital de Llegada obligatoria desde mayo 2025."
  },
  {
    "id": "bangkok-genbu-sushi-bar",
    "Nombre": "Genbu Sushi Bar",
    "Tipo": "Comida",
    "Horario": "Noche",
    "Ciudad": "Bangkok",
    "Tiempo": "1.5h",
    "Esfuerzo": "Bajo",
    "Costo": "1 USD/pieza",
    "Descripción": "Sushi de lujo asequible en un entorno de diseño.",
    "Detalle": "Piezas artesanales que incluyen ingredientes premium como caviar o trufa. Ubicado en Ratchayothin Hills.",
    "NotaIA": "El restaurante tiene un diseño retro-futurista muy llamativo para fotos.",
    "LATLON": "13.8265, 100.5670",
    "Image": "Link",
    "lat": 13.8265,
    "lon": 100.567,
    "imageUrl": "/thumbs/comida.svg",
    "shortDescription": "Sushi de lujo asequible en un entorno de diseño."
  },
  {
    "id": "bangkok-gran-palacio",
    "Nombre": "Gran Palacio",
    "Tipo": "Visita",
    "Horario": "Mañana",
    "Ciudad": "Bangkok",
    "Tiempo": "3h",
    "Esfuerzo": "Medio",
    "Costo": "500 THB",
    "Descripción": "El recinto real más sagrado e importante del país.",
    "Detalle": "Llegar 08:30h para evitar el calor y multitudes. Obligatorio hombros y rodillas cubiertas (no valen leggings ni tirantes). Verás el Buda de Esmeralda.",
    "NotaIA": "Es el sitio con el protocolo de vestimenta más estricto de toda Tailandia.",
    "LATLON": "13.7515, 100.4927",
    "Image": "Link",
    "lat": 13.7515,
    "lon": 100.4927,
    "imageUrl": "/thumbs/visita.svg",
    "shortDescription": "El recinto real más sagrado e importante del país."
  },
  {
    "id": "phuket-hanuman-world-mountain-carting",
    "Nombre": "Hanuman World (Mountain Carting)",
    "Tipo": "Experiencia",
    "Horario": "Mañana",
    "Ciudad": "Phuket",
    "Tiempo": "3-4h",
    "Esfuerzo": "Medio",
    "Costo": "1500 THB+",
    "Descripción": "Circuito de aventura con carritos de montaña y tirolesas.",
    "Detalle": "Incluye descenso en carritos por la selva. Se requiere casco y seguir las instrucciones del staff estrictamente.",
    "NotaIA": "Ubicado en la selva de Phuket; combina bien con la tirolesa (Zipline).",
    "LATLON": "7.8732, 98.3415",
    "Image": "Link",
    "lat": 7.8732,
    "lon": 98.3415,
    "imageUrl": "/thumbs/experiencia.svg",
    "shortDescription": "Circuito de aventura con carritos de montaña y tirolesas."
  },
  {
    "id": "bangkok-iconsiam-rooftop-barco",
    "Nombre": "Iconsiam (Rooftop & Barco)",
    "Tipo": "Compras",
    "Horario": "Mañana",
    "Ciudad": "Bangkok",
    "Tiempo": "3h",
    "Esfuerzo": "Bajo",
    "Costo": "Gratis (Entrada)",
    "Descripción": "Centro comercial de lujo con mirador gratuito y comida regional.",
    "Detalle": "Sube a la planta 7 para vistas gratuitas del skyline. Usa el barco de 8 THB desde el muelle Sathorn (no pagues 100 por el turístico).",
    "NotaIA": "La planta baja (SookSiam) replica un mercado flotante con comida muy buena.",
    "LATLON": "13.7274, 100.5103",
    "Image": "Link",
    "lat": 13.7274,
    "lon": 100.5103,
    "imageUrl": "/thumbs/compras.svg",
    "shortDescription": "Centro comercial de lujo con mirador gratuito y comida regional."
  },
  {
    "id": "tailandia-inhalador-ya-dom",
    "Nombre": "Inhalador (Ya Dom)",
    "Tipo": "Consejo",
    "Horario": "Mañana",
    "Ciudad": "Tailandia",
    "Tiempo": "-",
    "Esfuerzo": "Bajo",
    "Costo": "25 THB",
    "Descripción": "Tubito de aceites esenciales (mentol/eucalipto) para el calor.",
    "Detalle": "Lo verás en la nariz de todos los locales. Sirve para mareos, calor y malos olores.",
    "NotaIA": "El de la marca Poy-Sian es el más icónico.",
    "LATLON": "13.7563, 100.5018",
    "Image": "Link",
    "lat": 13.7563,
    "lon": 100.5018,
    "imageUrl": "/thumbs/consejo.svg",
    "shortDescription": "Tubito de aceites esenciales (mentol/eucalipto) para el calor."
  },
  {
    "id": "phuket-islas-similan",
    "Nombre": "Islas Similan",
    "Tipo": "Visita",
    "Horario": "Mañana",
    "Ciudad": "Phuket",
    "Tiempo": "10h",
    "Esfuerzo": "Alto",
    "Costo": "3500 THB",
    "Descripción": "Paraíso de aguas turquesas y snorkel de primer nivel.",
    "Detalle": "Se sale en lancha rápida (tour de día completo). Las playas más blancas de Tailandia.",
    "NotaIA": "Solo abren de noviembre a mayo por seguridad climática.",
    "LATLON": "8.6500, 97.6333",
    "Image": "Link",
    "lat": 8.65,
    "lon": 97.6333,
    "imageUrl": "/thumbs/visita.svg",
    "shortDescription": "Paraíso de aguas turquesas y snorkel de primer nivel."
  },
  {
    "id": "bangkok-jay-fai",
    "Nombre": "Jay Fai",
    "Tipo": "Comida",
    "Horario": "Tarde",
    "Ciudad": "Bangkok",
    "Tiempo": "3h",
    "Esfuerzo": "Medio",
    "Costo": "1400 THB",
    "Descripción": "Comida callejera con Estrella Michelin (Tortilla de Cangrejo).",
    "Detalle": "Las colas son de 2 a 4 horas si no tienes reserva. El plato estrella vale unos 40€.",
    "NotaIA": "Ella sigue cocinando personalmente cada plato con sus gafas de bucear.",
    "LATLON": "13.7526, 100.5048",
    "Image": "Link",
    "lat": 13.7526,
    "lon": 100.5048,
    "imageUrl": "/thumbs/comida.svg",
    "shortDescription": "Comida callejera con Estrella Michelin (Tortilla de Cangrejo)."
  },
  {
    "id": "bangkok-jim-thompson-house-museum",
    "Nombre": "Jim Thompson House Museum",
    "Tipo": "Visita",
    "Horario": "Mañana/Tarde",
    "Ciudad": "Bangkok",
    "Tiempo": "1-1.5 hs",
    "Esfuerzo": "Bajo",
    "Costo": "250 THB",
    "Descripción": "Museo/house-museum de Jim Thompson (Thai silk) con casas tradicionales y colección de arte.",
    "Detalle": "Tickets se compran en boletería. Boletería suele ser 10:00–17:00 (última entrada cercana al cierre).",
    "NotaIA": "Muy buena visita si te interesa cultura/diseño; combinar con Siam/MBK.",
    "LATLON": "-",
    "Image": "Link",
    "lat": 13.74923,
    "lon": 100.52828,
    "imageUrl": "/thumbs/visita.svg",
    "shortDescription": "Museo/house-museum de Jim Thompson (Thai silk) con casas tradicionales y colección de arte."
  },
  {
    "id": "koh-tao-john-suwan-viewpoint",
    "Nombre": "John Suwan Viewpoint",
    "Tipo": "Visita",
    "Horario": "Noche",
    "Ciudad": "Koh Tao",
    "Tiempo": "1h",
    "Esfuerzo": "Alto",
    "Costo": "50 THB",
    "Descripción": "Mirador con vista a las dos bahías enfrentadas.",
    "Detalle": "Subida empinada por rocas y cuerdas. No apto para personas con movilidad reducida.",
    "NotaIA": "La vista es la más famosa de Koh Tao, rodeada de palmeras.",
    "LATLON": "10.0638, 99.8273",
    "Image": "Link",
    "lat": 10.0638,
    "lon": 99.8273,
    "imageUrl": "/thumbs/visita.svg",
    "shortDescription": "Mirador con vista a las dos bahías enfrentadas."
  },
  {
    "id": "chiang-mai-khao-soi-maesai",
    "Nombre": "Khao Soi Maesai",
    "Tipo": "Comida",
    "Horario": "Mañana",
    "Ciudad": "Chiang Mai",
    "Tiempo": "1h",
    "Esfuerzo": "Bajo",
    "Costo": "50-80 THB",
    "Descripción": "El mejor Khao Soi (curry de noodles) de Tailandia.",
    "Detalle": "Aparece en la guía Michelin. Es un local sencillo pero con filas largas. El sabor es intenso y ligeramente picante.",
    "NotaIA": "Solo abren hasta las 16:00h. No vayas tarde o se acaba el pollo.",
    "LATLON": "18.8000, 98.9744",
    "Image": "Link",
    "lat": 18.8,
    "lon": 98.9744,
    "imageUrl": "/thumbs/comida.svg",
    "shortDescription": "El mejor Khao Soi (curry de noodles) de Tailandia."
  },
  {
    "id": "surat-thani-khao-sok-lago-cheow-lan",
    "Nombre": "Khao Sok (Lago Cheow Lan)",
    "Tipo": "Visita",
    "Horario": "Da Igual",
    "Ciudad": "Surat Thani",
    "Tiempo": "2 días",
    "Esfuerzo": "Medio",
    "Costo": "2500 THB+",
    "Descripción": "Parque Nacional con montañas de piedra surgiendo del agua.",
    "Detalle": "Se recomienda dormir en cabañas flotantes básicas sin internet. Incluye safaris en barco.",
    "NotaIA": "Es la selva con mayor biodiversidad del sur de Tailandia.",
    "LATLON": "8.9774, 98.6675",
    "Image": "Link",
    "lat": 8.9774,
    "lon": 98.6675,
    "imageUrl": "/thumbs/visita.svg",
    "shortDescription": "Parque Nacional con montañas de piedra surgiendo del agua."
  },
  {
    "id": "chiang-mai-khao-so-i",
    "Nombre": "Khao-so-i",
    "Tipo": "Gastronomía",
    "Horario": "Noche",
    "Ciudad": "Chiang Mai",
    "Tiempo": "1.5h",
    "Esfuerzo": "Bajo",
    "Costo": "150-250 THB",
    "Descripción": "Versión gourmet y moderna del Khao Soi.",
    "Detalle": "Estética de restaurante japonés. Fideos frescos y presentaciones de autor.",
    "NotaIA": "Es la versión \"linda\" y cara comparada con Maesai, pero deliciosa.",
    "LATLON": "18.7965, 99.0020",
    "Image": "Link",
    "lat": 18.7965,
    "lon": 99.002,
    "imageUrl": "/thumbs/gastronomia.svg",
    "shortDescription": "Versión gourmet y moderna del Khao Soi."
  },
  {
    "id": "bangkok-khlong-ong-ang",
    "Nombre": "Khlong Ong Ang",
    "Tipo": "Mercado",
    "Horario": "Tarde",
    "Ciudad": "Bangkok",
    "Tiempo": "2h",
    "Esfuerzo": "Bajo",
    "Costo": "Gratis",
    "Descripción": "Canal modernizado con arte urbano y comida.",
    "Detalle": "Paseo nocturno (Vie-Dom). Música en vivo y ambiente joven.",
    "NotaIA": "Está cerca de Little India y Chinatown.",
    "LATLON": "13.7445, 100.5030",
    "Image": "Link",
    "lat": 13.7445,
    "lon": 100.503,
    "imageUrl": "/thumbs/mercado.svg",
    "shortDescription": "Canal modernizado con arte urbano y comida."
  },
  {
    "id": "bangkok-khlong-saen-saep-boat",
    "Nombre": "Khlong Saen Saep Boat",
    "Tipo": "Transporte",
    "Horario": "Tarde",
    "Ciudad": "Bangkok",
    "Tiempo": "45m",
    "Esfuerzo": "Bajo",
    "Costo": "15-20 THB",
    "Descripción": "Barco de canal usado por locales para evitar tráfico.",
    "Detalle": "Atraviesa el centro de la ciudad. Rápido y muy auténtico (cuidado con el agua al subir).",
    "NotaIA": "Es la mejor forma de ir de Siam Square a la zona vieja (Wat Saket).",
    "LATLON": "13.7490, 100.5400",
    "Image": "Link",
    "lat": 13.749,
    "lon": 100.54,
    "imageUrl": "/thumbs/transporte.svg",
    "shortDescription": "Barco de canal usado por locales para evitar tráfico."
  },
  {
    "id": "isla-koh-kood",
    "Nombre": "Koh Kood",
    "Tipo": "Visita",
    "Horario": "Da Igual",
    "Ciudad": "Isla",
    "Tiempo": "Días",
    "Esfuerzo": "Bajo",
    "Costo": "Variable",
    "Descripción": "La isla virgen, llamada las \"Maldivas de Tailandia\".",
    "Detalle": "A 6h de Bangkok (bus+ferry). Auténtica, tranquila, sin turismo de masas.",
    "NotaIA": "Perfecta para desconectar y ver atardeceres en calma total.",
    "LATLON": "11.6600, 102.5500",
    "Image": "Link",
    "lat": 11.66,
    "lon": 102.55,
    "imageUrl": "/thumbs/visita.svg",
    "shortDescription": "La isla virgen, llamada las \"Maldivas de Tailandia\"."
  },
  {
    "id": "satun-koh-lipe",
    "Nombre": "Koh Lipe",
    "Tipo": "Visita",
    "Horario": "Noche",
    "Ciudad": "Satun",
    "Tiempo": "3 días",
    "Esfuerzo": "Bajo",
    "Costo": "Variable",
    "Descripción": "Conocida como las \"Maldivas de Tailandia\".",
    "Detalle": "Aguas ultra cristalinas y arena blanca finísima. Es una isla pequeña que se recorre a pie.",
    "NotaIA": "Es de difícil acceso (6h desde el aeropuerto más cercano), lo que la mantiene exclusiva.",
    "LATLON": "6.4886, 99.3015",
    "Image": "Link",
    "lat": 6.4886,
    "lon": 99.3015,
    "imageUrl": "/thumbs/visita.svg",
    "shortDescription": "Conocida como las \"Maldivas de Tailandia\"."
  },
  {
    "id": "isla-koh-tao-buceo-snorkel",
    "Nombre": "Koh Tao (Buceo/Snorkel)",
    "Tipo": "Visita",
    "Horario": "Da Igual",
    "Ciudad": "Isla",
    "Tiempo": "2-3 días",
    "Esfuerzo": "Medio",
    "Costo": "Variable",
    "Descripción": "El lugar más barato del mundo para bucear.",
    "Detalle": "Ambiente joven, calas pequeñas y aguas mansas. Ideal para sacar el certificado PADI.",
    "NotaIA": "Shark Bay es excelente para ver tiburones de punta negra (inofensivos).",
    "LATLON": "10.0956, 99.8404",
    "Image": "Link",
    "lat": 10.0956,
    "lon": 99.8404,
    "imageUrl": "/thumbs/visita.svg",
    "shortDescription": "El lugar más barato del mundo para bucear."
  },
  {
    "id": "chiang-rai-lalitta-cafe",
    "Nombre": "Lalitta Café",
    "Tipo": "Comida",
    "Horario": "Da Igual",
    "Ciudad": "Chiang Rai",
    "Tiempo": "1.5h",
    "Esfuerzo": "Bajo",
    "Costo": "60 THB",
    "Descripción": "Café inmersivo que parece un bosque encantado.",
    "Detalle": "Famoso por su niebla artificial constante, cascadas y flores exóticas. Es un restaurante completo.",
    "NotaIA": "Se paga entrada pero el valor se descuenta de lo que consumas dentro.",
    "LATLON": "19.9234, 99.8142",
    "Image": "Link",
    "lat": 19.9234,
    "lon": 99.8142,
    "imageUrl": "/thumbs/comida.svg",
    "shortDescription": "Café inmersivo que parece un bosque encantado."
  },
  {
    "id": "phuket-lard-yai-market",
    "Nombre": "Lard Yai Market",
    "Tipo": "Mercado",
    "Horario": "Da Igual",
    "Ciudad": "Phuket",
    "Tiempo": "2h",
    "Esfuerzo": "Bajo",
    "Costo": "Variable",
    "Descripción": "Mercado nocturno de los domingos en el casco viejo.",
    "Detalle": "Se realiza solo el domingo en Thalang Road. Comida local y shows callejeros.",
    "NotaIA": "Es el mejor momento para ver el casco histórico iluminado y con vida.",
    "LATLON": "7.8848, 98.3891",
    "Image": "Link",
    "lat": 7.8848,
    "lon": 98.3891,
    "imageUrl": "/thumbs/mercado.svg",
    "shortDescription": "Mercado nocturno de los domingos en el casco viejo."
  },
  {
    "id": "bangkok-little-den-cafe",
    "Nombre": "Little Den Cafe",
    "Tipo": "Visita",
    "Horario": "Mañana",
    "Ciudad": "Bangkok",
    "Tiempo": "1.5h",
    "Esfuerzo": "Bajo",
    "Costo": "400 THB",
    "Descripción": "Café temático con suricatas, zorros fennec y capibaras.",
    "Detalle": "Tienes que ponerte pantuflas y lavarte las manos al entrar. Los animales están vacunados y cuidados.",
    "NotaIA": "Debes reservar por adelantado ya que el cupo es muy limitado.",
    "LATLON": "13.7300, 100.5800",
    "Image": "Link",
    "lat": 13.73,
    "lon": 100.58,
    "imageUrl": "/thumbs/visita.svg",
    "shortDescription": "Café temático con suricatas, zorros fennec y capibaras."
  },
  {
    "id": "bangkok-lumphini-park",
    "Nombre": "Lumphini Park",
    "Tipo": "Visita",
    "Horario": "Mañana/Tarde",
    "Ciudad": "Bangkok",
    "Tiempo": "1-2 hs",
    "Esfuerzo": "Bajo",
    "Costo": "Gratis",
    "Descripción": "Parque urbano icónico: caminata, lago y chance de ver varanos (monitor lizards).",
    "Detalle": "Ideal a la mañana temprano o al atardecer. Entrada gratuita; suele abrir 04:30 y cerrar 21:00–22:00 según temporada.",
    "NotaIA": "Buen “reset” entre templos/compras; llevar repelente si vas al atardecer.",
    "LATLON": "13.73056, 100.54167",
    "Image": "Link",
    "lat": 13.73056,
    "lon": 100.54167,
    "imageUrl": "/thumbs/visita.svg",
    "shortDescription": "Parque urbano icónico: caminata, lago y chance de ver varanos (monitor lizards)."
  },
  {
    "id": "cerca-cm-mae-kampong-village",
    "Nombre": "Mae Kampong Village",
    "Tipo": "Visita",
    "Horario": "Da Igual",
    "Ciudad": "Cerca CM",
    "Tiempo": "4h",
    "Esfuerzo": "Medio",
    "Costo": "Gratis",
    "Descripción": "Aldea de montaña auténtica y nublada.",
    "Detalle": "Famosa por su café de altura, cascadas y casas de madera tradicionales.",
    "NotaIA": "Aire puro y temperatura mucho más fresca que en la ciudad.",
    "LATLON": "18.8653, 99.3495",
    "Image": "Link",
    "lat": 18.8653,
    "lon": 99.3495,
    "imageUrl": "/thumbs/visita.svg",
    "shortDescription": "Aldea de montaña auténtica y nublada."
  },
  {
    "id": "bangkok-mahanakhon-skywalk",
    "Nombre": "MahaNakhon SkyWalk",
    "Tipo": "Visita",
    "Horario": "Mañana",
    "Ciudad": "Bangkok",
    "Tiempo": "2h",
    "Esfuerzo": "Bajo",
    "Costo": "1050 THB+",
    "Descripción": "Mirador con piso de cristal a 314m.",
    "Detalle": "Piso 78. No cámaras en el vidrio. Ir antes de las 16h es más barato. Compra en apps como GetYourGuide o Klook para conseguir combos con descuento.",
    "NotaIA": "Si almuerzas en el restaurante Ojo, el acceso suele estar incluido o bonificado.",
    "LATLON": "13.7235, 100.5284",
    "Image": "Link",
    "lat": 13.7235,
    "lon": 100.5284,
    "imageUrl": "/thumbs/visita.svg",
    "shortDescription": "Mirador con piso de cristal a 314m."
  },
  {
    "id": "bangkok-mbk-center",
    "Nombre": "MBK Center",
    "Tipo": "Compras",
    "Horario": "Da Igual",
    "Ciudad": "Bangkok",
    "Tiempo": "3h",
    "Esfuerzo": "Medio",
    "Costo": "Variable",
    "Descripción": "El paraíso de las réplicas y electrónica.",
    "Detalle": "8 plantas. Busca las \"secret rooms\" para réplicas de lujo (bolsos/relojes) de alta calidad. Regatear es obligatorio.",
    "NotaIA": "Abre a las 10am. Es el lugar ideal para comprar ropa \"fake\" pero bien hecha.",
    "LATLON": "13.7444, 100.5299",
    "Image": "Link",
    "lat": 13.7444,
    "lon": 100.5299,
    "imageUrl": "/thumbs/compras.svg",
    "shortDescription": "El paraíso de las réplicas y electrónica."
  },
  {
    "id": "varias-playas-templos-monos-carteristas",
    "Nombre": "Monos Carteristas",
    "Tipo": "Consejo",
    "Horario": "Mañana",
    "Ciudad": "Varias (Playas/Templos)",
    "Tiempo": "-",
    "Esfuerzo": "Bajo",
    "Costo": "$0",
    "Descripción": "Precaución con los monos salvajes en zonas turísticas.",
    "Detalle": "Los monos en lugares como Phi Phi o Lopburi roban comida, móviles y bolsos si te descuidas.",
    "NotaIA": "Nunca intentes recuperar algo a la fuerza si el mono se pone agresivo; busca ayuda de un local.",
    "LATLON": "7.7407, 98.7784",
    "Image": "Link",
    "lat": 7.7407,
    "lon": 98.7784,
    "imageUrl": "/thumbs/consejo.svg",
    "shortDescription": "Precaución con los monos salvajes en zonas turísticas."
  },
  {
    "id": "chiang-rai-mujeres-jirafa-karen",
    "Nombre": "Mujeres Jirafa (Karen)",
    "Tipo": "Cultura",
    "Horario": "Tarde",
    "Ciudad": "Chiang Rai",
    "Tiempo": "1.5h",
    "Esfuerzo": "Bajo",
    "Costo": "500 THB",
    "Descripción": "Visita a la aldea de la etnia Long Neck.",
    "Detalle": "Conocerás la tradición de los anillos de latón y su artesanía textil.",
    "NotaIA": "Nota: Es un tema controversial; asegúrate de ir con un guía que respete a la comunidad.",
    "LATLON": "20.0515, 99.8820",
    "Image": "Link",
    "lat": 20.0515,
    "lon": 99.882,
    "imageUrl": "/thumbs/cultura.svg",
    "shortDescription": "Visita a la aldea de la etnia Long Neck."
  },
  {
    "id": "phuket-novotel-phuket-kamala-beach",
    "Nombre": "Novotel Phuket Kamala Beach",
    "Tipo": "Hotel",
    "Horario": "Da Igual",
    "Ciudad": "Phuket",
    "Tiempo": "-",
    "Esfuerzo": "Bajo",
    "Costo": "-",
    "Descripción": "Resort frente al mar en la tranquila playa de Kamala.",
    "Detalle": "Ubicación privilegiada con acceso directo a la playa. Más relajado que Patong pero cerca de todo.",
    "NotaIA": "Importante: Desde aquí al aeropuerto son 40-50 min. El show Carnival Magic queda muy cerca de este hotel.",
    "LATLON": "7.9555, 98.2872",
    "Image": "Link",
    "lat": 7.9555,
    "lon": 98.2872,
    "imageUrl": "/thumbs/hotel.svg",
    "shortDescription": "Resort frente al mar en la tranquila playa de Kamala."
  },
  {
    "id": "bangkok-ojo-bangkok",
    "Nombre": "Ojo Bangkok",
    "Tipo": "Comida",
    "Horario": "Mañana",
    "Ciudad": "Bangkok",
    "Tiempo": "2h",
    "Esfuerzo": "Bajo",
    "Costo": "990 THB+",
    "Descripción": "Restaurante mexicano en el piso 76 de la torre Mahanakhon.",
    "Detalle": "El menú de almuerzo es la forma más barata de conocer el edificio. Si gastas más de 1500 THB, te dan acceso al Skywalk gratis.",
    "NotaIA": "Las vistas son mejores que las del propio mirador público.",
    "LATLON": "13.7235, 100.5284",
    "Image": "Link",
    "lat": 13.7235,
    "lon": 100.5284,
    "imageUrl": "/thumbs/comida.svg",
    "shortDescription": "Restaurante mexicano en el piso 76 de la torre Mahanakhon."
  },
  {
    "id": "phuket-old-phuket-town",
    "Nombre": "Old Phuket Town",
    "Tipo": "Visita",
    "Horario": "Mañana",
    "Ciudad": "Phuket",
    "Tiempo": "2h",
    "Esfuerzo": "Bajo",
    "Costo": "Gratis",
    "Descripción": "Casco histórico colonial colorido.",
    "Detalle": "Fachadas estilo sino-portugués. Muy instagrameable.",
    "NotaIA": "Domingo hay mercado nocturno (Lard Yai).",
    "LATLON": "7.8848, 98.3891",
    "Image": "Link",
    "lat": 7.8848,
    "lon": 98.3891,
    "imageUrl": "/thumbs/visita.svg",
    "shortDescription": "Casco histórico colonial colorido."
  },
  {
    "id": "bangkok-one-bangkok",
    "Nombre": "One Bangkok",
    "Tipo": "Visita",
    "Horario": "Da Igual",
    "Ciudad": "Bangkok",
    "Tiempo": "2-3h",
    "Esfuerzo": "Bajo",
    "Costo": "Gratis",
    "Descripción": "Nuevo distrito futurista con centros comerciales y parques.",
    "Detalle": "Arquitectura de vanguardia, áreas verdes y tecnología de punta. Representa la \"Bangkok del futuro\".",
    "NotaIA": "Ideal para pasear cuando el calor es extremo gracias a sus áreas abiertas diseñadas con ventilación natural.",
    "LATLON": "13.7265, 100.5450",
    "Image": "Link",
    "lat": 13.7265,
    "lon": 100.545,
    "imageUrl": "/thumbs/visita.svg",
    "shortDescription": "Nuevo distrito futurista con centros comerciales y parques."
  },
  {
    "id": "bangkok-pak-khlong-talat",
    "Nombre": "Pak Khlong Talat",
    "Tipo": "Visita",
    "Horario": "Noche",
    "Ciudad": "Bangkok",
    "Tiempo": "1.5h",
    "Esfuerzo": "Bajo",
    "Costo": "Gratis",
    "Descripción": "El mercado de flores más grande y colorido.",
    "Detalle": "Funciona 24h, pero el pico de actividad es a las 3:00-4:00 AM. Muy cerca de Wat Pho.",
    "NotaIA": "Es un gran lugar para ver la vida local real sin filtros turísticos.",
    "LATLON": "13.7416, 100.4950",
    "Image": "Link",
    "lat": 13.7416,
    "lon": 100.495,
    "imageUrl": "/thumbs/visita.svg",
    "shortDescription": "El mercado de flores más grande y colorido."
  },
  {
    "id": "phuket-patong-sneakers",
    "Nombre": "Patong Sneakers",
    "Tipo": "Compras",
    "Horario": "Noche",
    "Ciudad": "Phuket",
    "Tiempo": "1.5h",
    "Esfuerzo": "Bajo",
    "Costo": "490 THB+",
    "Descripción": "Tienda de zapatillas de segunda mano y \"pre-loved\" de alta calidad.",
    "Detalle": "Tienen modelos de Jordan, Yeezy y Nike a precios muy bajos. Los precios son fijos, no hace falta regatear.",
    "NotaIA": "Ideal para renovar calzado si viajas con poco equipaje.",
    "LATLON": "7.8937, 98.2988",
    "Image": "Link",
    "lat": 7.8937,
    "lon": 98.2988,
    "imageUrl": "/thumbs/compras.svg",
    "shortDescription": "Tienda de zapatillas de segunda mano y \"pre-loved\" de alta calidad."
  },
  {
    "id": "krabi-phuket-phi-phi-islands-day-trip",
    "Nombre": "Phi Phi Islands (Day Trip)",
    "Tipo": "Visita",
    "Horario": "Tarde",
    "Ciudad": "Krabi/Phuket",
    "Tiempo": "8h",
    "Esfuerzo": "Alto",
    "Costo": "2500 THB",
    "Descripción": "Maya Bay y lagunas turquesas.",
    "Detalle": "Se llega en lancha rápida. Incluye snorkel y almuerzo.",
    "NotaIA": "Maya Bay puede cerrar en temporada baja por restauración.",
    "LATLON": "7.7407, 98.7784",
    "Image": "Link",
    "lat": 7.7407,
    "lon": 98.7784,
    "imageUrl": "/thumbs/visita.svg",
    "shortDescription": "Maya Bay y lagunas turquesas."
  },
  {
    "id": "railay-phra-nang-cave-beach",
    "Nombre": "Phra Nang Cave Beach",
    "Tipo": "Playa",
    "Horario": "Da Igual",
    "Ciudad": "Railay",
    "Tiempo": "2h",
    "Esfuerzo": "Bajo",
    "Costo": "Gratis",
    "Descripción": "Playa con altar de fertilidad y cuevas.",
    "Detalle": "Una de las playas más bellas del mundo. Escenario de escalada y aguas turquesas.",
    "NotaIA": "Se llega caminando 15 min desde Railay East.",
    "LATLON": "8.0047, 98.8375",
    "Image": "Link",
    "lat": 8.0047,
    "lon": 98.8375,
    "imageUrl": "/thumbs/playa.svg",
    "shortDescription": "Playa con altar de fertilidad y cuevas."
  },
  {
    "id": "phuket-phuket-cooking-class-vj",
    "Nombre": "Phuket Cooking Class (VJ)",
    "Tipo": "Gastronomía",
    "Horario": "Mañana",
    "Ciudad": "Phuket",
    "Tiempo": "3.5h",
    "Esfuerzo": "Bajo",
    "Costo": "1800 THB",
    "Descripción": "Clase personalizada con chef local.",
    "Detalle": "Enfoque en mariscos y platos clásicos del sur. Muy interactivo.",
    "NotaIA": "La ubicación es cerca de las playas principales.",
    "LATLON": "7.8320, 98.3315",
    "Image": "Link",
    "lat": 7.832,
    "lon": 98.3315,
    "imageUrl": "/thumbs/gastronomia.svg",
    "shortDescription": "Clase personalizada con chef local."
  },
  {
    "id": "phuket-promthep-cape-sunset-viewpoint",
    "Nombre": "Promthep Cape Sunset Viewpoint",
    "Tipo": "Visita",
    "Horario": "Tarde",
    "Ciudad": "Phuket",
    "Tiempo": "1-1.5 hs",
    "Esfuerzo": "Bajo",
    "Costo": "Gratis",
    "Descripción": "El mirador de atardecer más famoso del sur de Phuket (puede estar muy concurrido).",
    "Detalle": "Llegar 45–60 min antes del sunset para estacionar y encontrar buen lugar. Llevar agua.",
    "NotaIA": "Si querés fotos, subí antes de la hora pico y quedate hasta después del ocaso.",
    "LATLON": "7.7614, 98.3036",
    "Image": "Link",
    "lat": 7.7614,
    "lon": 98.3036,
    "imageUrl": "/thumbs/visita.svg",
    "shortDescription": "El mirador de atardecer más famoso del sur de Phuket (puede estar muy concurrido)."
  },
  {
    "id": "krabi-railay-beach",
    "Nombre": "Railay Beach",
    "Tipo": "Playa",
    "Horario": "Da Igual",
    "Ciudad": "Krabi",
    "Tiempo": "1 día",
    "Esfuerzo": "Medio",
    "Costo": "200 THB",
    "Descripción": "Playa aislada rodeada de acantilados gigantes.",
    "Detalle": "Solo accesible en bote (longtail) desde Ao Nang. Famosa por la escalada en roca.",
    "NotaIA": "Phra Nang Cave es la mejor playa de este sector (lado oeste).",
    "LATLON": "8.0119, 98.8367",
    "Image": "Link",
    "lat": 8.0119,
    "lon": 98.8367,
    "imageUrl": "/thumbs/playa.svg",
    "shortDescription": "Playa aislada rodeada de acantilados gigantes."
  },
  {
    "id": "bangkok-rajadamnern-muay-thai-stadium-fight-night",
    "Nombre": "Rajadamnern Muay Thai Stadium (Fight Night)",
    "Tipo": "Actividad",
    "Horario": "Noche",
    "Ciudad": "Bangkok",
    "Tiempo": "2-3 hs",
    "Esfuerzo": "Bajo",
    "Costo": "~1.500–3.500 THB",
    "Descripción": "Noche de Muay Thai en uno de los estadios históricos de Bangkok.",
    "Detalle": "Ver calendario y comprar tickets con anticipación. Llegar 30–45 min antes para ubicarse.",
    "NotaIA": "Tomá esto como show cultural; si querés una noche distinta fuera de rooftops, es buena opción.",
    "LATLON": "-",
    "Image": "Link",
    "lat": 13.756664,
    "lon": 100.505331,
    "imageUrl": "/thumbs/actividad.svg",
    "shortDescription": "Noche de Muay Thai en uno de los estadios históricos de Bangkok."
  },
  {
    "id": "tailandia-retiros-en-atm-cajeros",
    "Nombre": "Retiros en ATM (Cajeros)",
    "Tipo": "Consejo",
    "Horario": "Mañana",
    "Ciudad": "Tailandia",
    "Tiempo": "5m",
    "Esfuerzo": "Bajo",
    "Costo": "220 THB",
    "Descripción": "Comisión fija por sacar dinero con tarjetas extranjeras.",
    "Detalle": "Todos los cajeros tailandeses cobran 220 THB por transacción, sin importar el monto.",
    "NotaIA": "Conviene retirar el máximo permitido (normalmente 20,000 o 30,000 THB) para amortizar la comisión.",
    "LATLON": "13.7563, 100.5018",
    "Image": "Link",
    "lat": 13.7563,
    "lon": 100.5018,
    "imageUrl": "/thumbs/consejo.svg",
    "shortDescription": "Comisión fija por sacar dinero con tarjetas extranjeras."
  },
  {
    "id": "bangkok-sak-yant-tattoo",
    "Nombre": "Sak Yant Tattoo",
    "Tipo": "Experiencia",
    "Horario": "Tarde",
    "Ciudad": "Bangkok",
    "Tiempo": "3-5h",
    "Esfuerzo": "Medio",
    "Costo": "Variable",
    "Descripción": "Tatuaje tradicional tailandés hecho con varilla.",
    "Detalle": "Realizado por un maestro Ajarn. No es solo un tatuaje, incluye un ritual de bendición y protección.",
    "NotaIA": "Requiere un compromiso ético de \"hacer el bien\" para que la protección funcione.",
    "LATLON": "13.7563, 100.5018",
    "Image": "Link",
    "lat": 13.7563,
    "lon": 100.5018,
    "imageUrl": "/thumbs/experiencia.svg",
    "shortDescription": "Tatuaje tradicional tailandés hecho con varilla."
  },
  {
    "id": "phuket-sama-onsen-massage",
    "Nombre": "SAMA Onsen & Massage",
    "Tipo": "Spa",
    "Horario": "Tarde",
    "Ciudad": "Phuket",
    "Tiempo": "2h",
    "Esfuerzo": "Bajo",
    "Costo": "1800 THB+",
    "Descripción": "Fusión de onsen japonés y masaje tailandés.",
    "Detalle": "Experiencia de relajación profunda con piscinas de diferentes temperaturas.",
    "NotaIA": "Muy recomendado tras días intensos de excursiones en barco.",
    "LATLON": "7.8920, 98.3010",
    "Image": "Link",
    "lat": 7.892,
    "lon": 98.301,
    "imageUrl": "/thumbs/spa.svg",
    "shortDescription": "Fusión de onsen japonés y masaje tailandés."
  },
  {
    "id": "koh-yao-yai-santhiya-resort-koh-yao-yai",
    "Nombre": "Santhiya Resort (Koh Yao Yai)",
    "Tipo": "Alojamiento",
    "Horario": "Tarde",
    "Ciudad": "Koh Yao Yai",
    "Tiempo": "-",
    "Esfuerzo": "Bajo",
    "Costo": "Alto",
    "Descripción": "Resort de lujo de madera tallada a mano frente al mar.",
    "Detalle": "Recomendado por creadores como alternativa a Phuket por ser menos turístico y más tranquilo.",
    "NotaIA": "Se llega en barco rápido (speed boat) desde el muelle de Phuket.",
    "LATLON": "8.0494, 98.6015",
    "Image": "Link",
    "lat": 8.0494,
    "lon": 98.6015,
    "imageUrl": "/thumbs/alojamiento.svg",
    "shortDescription": "Resort de lujo de madera tallada a mano frente al mar."
  },
  {
    "id": "bangkok-skyflyers-giant-swing",
    "Nombre": "Skyflyers Giant Swing",
    "Tipo": "Visita",
    "Horario": "Mañana",
    "Ciudad": "Bangkok",
    "Tiempo": "15m",
    "Esfuerzo": "Alto",
    "Costo": "320 THB",
    "Descripción": "El columpio gigante más alto del mundo en un parque de atracciones.",
    "Detalle": "Ubicado en Asiatique. 135 metros de altura. Adrenalina pura con vistas al río.",
    "NotaIA": "Ir al atardecer para fotos épicas desde el columpio.",
    "LATLON": "13.7042, 100.5034",
    "Image": "Link",
    "lat": 13.7042,
    "lon": 100.5034,
    "imageUrl": "/thumbs/visita.svg",
    "shortDescription": "El columpio gigante más alto del mundo en un parque de atracciones."
  },
  {
    "id": "bangkok-so-thai-spa-bangkok",
    "Nombre": "So Thai Spa Bangkok",
    "Tipo": "Spa",
    "Horario": "Da Igual",
    "Ciudad": "Bangkok",
    "Tiempo": "2h",
    "Esfuerzo": "Bajo",
    "Costo": "1200 THB+",
    "Descripción": "Spa premium con masajes tradicionales de alta calidad.",
    "Detalle": "Ubicado en Sukhumvit. Ambiente elegante y terapeutas expertos.",
    "NotaIA": "Ideal para el primer día tras el vuelo largo (Jet lag).",
    "LATLON": "13.7330, 100.5620",
    "Image": "Link",
    "lat": 13.733,
    "lon": 100.562,
    "imageUrl": "/thumbs/spa.svg",
    "shortDescription": "Spa premium con masajes tradicionales de alta calidad."
  },
  {
    "id": "phuket-town-soi-romanee",
    "Nombre": "Soi Romanee",
    "Tipo": "Visita",
    "Horario": "Tarde",
    "Ciudad": "Phuket Town",
    "Tiempo": "1h",
    "Esfuerzo": "Bajo",
    "Costo": "Gratis",
    "Descripción": "La calle más pintoresca y colorida del casco antiguo.",
    "Detalle": "Edificios de estilo sino-portugués llenos de cafeterías y flores. Muy concurrida para fotos de Instagram.",
    "NotaIA": "Ve por la mañana temprano si quieres la calle vacía.",
    "LATLON": "7.8848, 98.3891",
    "Image": "Link",
    "lat": 7.8848,
    "lon": 98.3891,
    "imageUrl": "/thumbs/visita.svg",
    "shortDescription": "La calle más pintoresca y colorida del casco antiguo."
  },
  {
    "id": "bangkok-soksiam-iconsiam-barco",
    "Nombre": "SokSiam (IconSiam Barco)",
    "Tipo": "Transporte",
    "Horario": "Tarde",
    "Ciudad": "Bangkok",
    "Tiempo": "15-20m",
    "Esfuerzo": "Bajo",
    "Costo": "8 THB",
    "Descripción": "Barco lanzadera oficial desde el muelle Sathorn.",
    "Detalle": "No tomes los barcos de 30 o 100 THB; el oficial de IconSiam cuesta solo 8 THB.",
    "NotaIA": "El trayecto ofrece vistas rápidas pero lindas del skyline del río.",
    "LATLON": "13.7274, 100.5103",
    "Image": "Link",
    "lat": 13.7274,
    "lon": 100.5103,
    "imageUrl": "/thumbs/transporte.svg",
    "shortDescription": "Barco lanzadera oficial desde el muelle Sathorn."
  },
  {
    "id": "bangkok-sooksiam-iconsiam",
    "Nombre": "SookSiam (ICONSIAM)",
    "Tipo": "Comida",
    "Horario": "Noche",
    "Ciudad": "Bangkok",
    "Tiempo": "2h",
    "Esfuerzo": "Bajo",
    "Costo": "Variable",
    "Descripción": "Mercado flotante interior con aire acondicionado.",
    "Detalle": "Planta baja del mall. Reúne comida de las 77 provincias de Tailandia.",
    "NotaIA": "Precios de calle en un entorno de lujo y limpio.",
    "LATLON": "13.7274, 100.5103",
    "Image": "Link",
    "lat": 13.7274,
    "lon": 100.5103,
    "imageUrl": "/thumbs/comida.svg",
    "shortDescription": "Mercado flotante interior con aire acondicionado."
  },
  {
    "id": "chiang-mai-sticky-waterfall-bua-thong",
    "Nombre": "Sticky Waterfall (Bua Thong)",
    "Tipo": "Visita",
    "Horario": "Da Igual",
    "Ciudad": "Chiang Mai",
    "Tiempo": "3h",
    "Esfuerzo": "Alto",
    "Costo": "Gratis",
    "Descripción": "Cascada de piedra caliza que se puede trepar.",
    "Detalle": "El depósito de calcio hace que las rocas no resbalen, permitiendo subir a pie como \"Spider-man\".",
    "NotaIA": "Lleva ropa que se pueda mojar y toalla; hay vestuarios en el lugar.",
    "LATLON": "19.0718, 99.1089",
    "Image": "Link",
    "lat": 19.0718,
    "lon": 99.1089,
    "imageUrl": "/thumbs/visita.svg",
    "shortDescription": "Cascada de piedra caliza que se puede trepar."
  },
  {
    "id": "sukhothai-sukhothai-historical-park",
    "Nombre": "Sukhothai Historical Park",
    "Tipo": "Visita",
    "Horario": "Tarde",
    "Ciudad": "Sukhothai",
    "Tiempo": "4h",
    "Esfuerzo": "Medio",
    "Costo": "100 THB",
    "Descripción": "Ruinas de la primera capital del Reino de Siam.",
    "Detalle": "Patrimonio UNESCO. Mucho más tranquilo y menos masificado que Ayutthaya.",
    "NotaIA": "Tip IA: Alquila una bicicleta en la entrada (30 THB) para recorrer los tres sectores.",
    "LATLON": "17.0185, 99.7036",
    "Image": "Link",
    "lat": 17.0185,
    "lon": 99.7036,
    "imageUrl": "/thumbs/visita.svg",
    "shortDescription": "Ruinas de la primera capital del Reino de Siam."
  },
  {
    "id": "chiang-mai-sunday-walking-street",
    "Nombre": "Sunday Walking Street",
    "Tipo": "Mercado",
    "Horario": "Da Igual",
    "Ciudad": "Chiang Mai",
    "Tiempo": "3h",
    "Esfuerzo": "Medio",
    "Costo": "Gratis",
    "Descripción": "El mercado más grande y auténtico del país.",
    "Detalle": "Solo domingos. Ocupa toda la calle Ratchadamnoen. Artesanías y comida increíble.",
    "NotaIA": "Empieza a las 17:00h. Se llena mucho; ve temprano.",
    "LATLON": "18.7877, 98.9895",
    "Image": "Link",
    "lat": 18.7877,
    "lon": 98.9895,
    "imageUrl": "/thumbs/mercado.svg",
    "shortDescription": "El mercado más grande y auténtico del país."
  },
  {
    "id": "bangkok-superrich-verde",
    "Nombre": "SuperRich (Verde)",
    "Tipo": "Consejo",
    "Horario": "Tarde",
    "Ciudad": "Bangkok",
    "Tiempo": "10m",
    "Esfuerzo": "Bajo",
    "Costo": "-",
    "Descripción": "La mejor casa de cambio de divisas de la ciudad.",
    "Detalle": "El color verde suele tener una tasa ligeramente mejor que el naranja. Hay muchas sucursales en centros comerciales.",
    "NotaIA": "Necesitas el pasaporte físico para cualquier operación de cambio.",
    "LATLON": "13.7485, 100.5404",
    "Image": "Link",
    "lat": 13.7485,
    "lon": 100.5404,
    "imageUrl": "/thumbs/consejo.svg",
    "shortDescription": "La mejor casa de cambio de divisas de la ciudad."
  },
  {
    "id": "bangkok-taxi-publico-aeropuerto-suvarnabhumi",
    "Nombre": "Taxi Público Aeropuerto (Suvarnabhumi)",
    "Tipo": "Transporte",
    "Horario": "Da Igual",
    "Ciudad": "Bangkok",
    "Tiempo": "45-60m",
    "Esfuerzo": "Bajo",
    "Costo": "600 THB",
    "Descripción": "Servicio de taxis oficiales controlados por sistema de tickets.",
    "Detalle": "No aceptes ofertas de taxistas en la puerta. Debes ir a las máquinas, sacar un ticket con el número de carril (ej. carril 44) y dirigirte allí. El costo incluye: taxímetro + 50 THB tasa aeropuerto + peajes.",
    "NotaIA": "Un taxi oficial puede costar hasta un 50% más que pedirlo por la App Grab (ej. 600 THB vs 400 THB).",
    "LATLON": "13.6899, 100.7501",
    "Image": "Link",
    "lat": 13.6899,
    "lon": 100.7501,
    "imageUrl": "/thumbs/transporte.svg",
    "shortDescription": "Servicio de taxis oficiales controlados por sistema de tickets."
  },
  {
    "id": "bangkok-tichuca-rooftop-bar",
    "Nombre": "Tichuca Rooftop Bar",
    "Tipo": "Visita",
    "Horario": "Mañana",
    "Ciudad": "Bangkok",
    "Tiempo": "2h",
    "Esfuerzo": "Bajo",
    "Costo": "500+ THB",
    "Descripción": "Bar en las alturas con un \"árbol\" de luces LED gigante.",
    "Detalle": "Ubicado en el edificio T-One. Famoso en TikTok por sus medusas de luz. Se requiere vestimenta casual-elegante.",
    "NotaIA": "Suele haber mucha fila; intenta ir justo cuando abren (17:00h).",
    "LATLON": "13.7230, 100.5794",
    "Image": "Link",
    "lat": 13.723,
    "lon": 100.5794,
    "imageUrl": "/thumbs/visita.svg",
    "shortDescription": "Bar en las alturas con un \"árbol\" de luces LED gigante."
  },
  {
    "id": "transporte-tren-a-ayutthaya",
    "Nombre": "Tren a Ayutthaya",
    "Tipo": "Consejo",
    "Horario": "Tarde",
    "Ciudad": "Transporte",
    "Tiempo": "1.5h",
    "Esfuerzo": "Bajo",
    "Costo": "15 THB",
    "Descripción": "El viaje más barato de Bangkok a las ruinas antiguas.",
    "Detalle": "Salida desde estación Hua Lamphong o Krung Thep Aphiwat. El tren local es una experiencia muy auténtica.",
    "NotaIA": "En Ayutthaya alquila una bici o tuk-tuk para ver los templos.",
    "LATLON": "14.3472, 100.5847",
    "Image": "Link",
    "lat": 14.3472,
    "lon": 100.5847,
    "imageUrl": "/thumbs/consejo.svg",
    "shortDescription": "El viaje más barato de Bangkok a las ruinas antiguas."
  },
  {
    "id": "bkk-chiang-mai-tren-nocturno-n-9",
    "Nombre": "Tren Nocturno (Nº 9)",
    "Tipo": "Transporte",
    "Horario": "Mañana",
    "Ciudad": "BKK-Chiang Mai",
    "Tiempo": "13h",
    "Esfuerzo": "Bajo",
    "Costo": "~1000 THB",
    "Descripción": "El mejor tren nocturno para ir al norte del país.",
    "Detalle": "El tren número 9 es el más moderno. Incluye cama, sábanas limpias y cena. El aire acondicionado es muy fuerte.",
    "NotaIA": "Tip Crucial: Reserva la cama de abajo; es más ancha y tiene ventana. Lleva abrigo.",
    "LATLON": "13.8043, 100.5402",
    "Image": "Link",
    "lat": 13.8043,
    "lon": 100.5402,
    "imageUrl": "/thumbs/transporte.svg",
    "shortDescription": "El mejor tren nocturno para ir al norte del país."
  },
  {
    "id": "chiang-mai-vieng-thapae-resort",
    "Nombre": "Vieng Thapae Resort",
    "Tipo": "Hotel",
    "Horario": "Da Igual",
    "Ciudad": "Chiang Mai",
    "Tiempo": "-",
    "Esfuerzo": "Bajo",
    "Costo": "-",
    "Descripción": "Resort estilo colonial Lanna cerca de la muralla.",
    "Detalle": "Ubicado a pasos de la Tha Phae Gate. Ideal para recorrer el casco antiguo a pie y cerca del mercado de los domingos.",
    "NotaIA": "Al estar tan céntrico, puedes volver a descansar un rato al mediodía para evitar el pico de calor.",
    "LATLON": "18.7875, 98.9935",
    "Image": "Link",
    "lat": 18.7875,
    "lon": 98.9935,
    "imageUrl": "/thumbs/hotel.svg",
    "shortDescription": "Resort estilo colonial Lanna cerca de la muralla."
  },
  {
    "id": "bangkok-vuelo-bkk-cnx",
    "Nombre": "Vuelo BKK - CNX",
    "Tipo": "Vuelo",
    "Horario": "Da Igual",
    "Ciudad": "Bangkok",
    "Tiempo": "1h 20m",
    "Esfuerzo": "Bajo",
    "Costo": "-",
    "Descripción": "Vuelo local a Chiang Mai.",
    "Detalle": "Salida 24/02 08:50. Air Asia FD4100.",
    "NotaIA": "Traslado al hotel en CNX estimado en 40-60 min por tráfico. Valida el peso de cabina; Air Asia es estricto con los 7kg.",
    "LATLON": "13.6899, 100.7501",
    "Image": "Link",
    "lat": 13.6899,
    "lon": 100.7501,
    "imageUrl": "/thumbs/vuelo.svg",
    "shortDescription": "Vuelo local a Chiang Mai."
  },
  {
    "id": "bangkok-vuelo-bkk-ist",
    "Nombre": "Vuelo BKK - IST",
    "Tipo": "Vuelo",
    "Horario": "Da Igual",
    "Ciudad": "Bangkok",
    "Tiempo": "10h 20m",
    "Esfuerzo": "Medio",
    "Costo": "-",
    "Descripción": "Inicio del regreso a casa.",
    "Detalle": "Salida 09/03 23:45. Thai Airways TG900.",
    "NotaIA": "Estrategia: Deja maletas en Hotel Column y ve al aeropuerto a las 20:30.",
    "LATLON": "13.6899, 100.7501",
    "Image": "Link",
    "lat": 13.6899,
    "lon": 100.7501,
    "imageUrl": "/thumbs/vuelo.svg",
    "shortDescription": "Inicio del regreso a casa."
  },
  {
    "id": "chiang-mai-vuelo-cnx-hkt",
    "Nombre": "Vuelo CNX - HKT",
    "Tipo": "Vuelo",
    "Horario": "Da Igual",
    "Ciudad": "Chiang Mai",
    "Tiempo": "2h 10m",
    "Esfuerzo": "Bajo",
    "Costo": "-",
    "Descripción": "Vuelo directo al paraíso (Phuket).",
    "Detalle": "Salida 28/02 11:40. Air Asia FD8165.",
    "NotaIA": "Ojo: El traslado a Kamala/Patong es de 45-60 min, no 10 min [Recomendación IA].",
    "LATLON": "18.7753, 98.9675",
    "Image": "Link",
    "lat": 18.7753,
    "lon": 98.9675,
    "imageUrl": "/thumbs/vuelo.svg",
    "shortDescription": "Vuelo directo al paraíso (Phuket)."
  },
  {
    "id": "buenos-aires-vuelo-eze-gru",
    "Nombre": "Vuelo EZE - GRU",
    "Tipo": "Vuelo",
    "Horario": "Da Igual",
    "Ciudad": "Buenos Aires",
    "Tiempo": "2h 35m",
    "Esfuerzo": "Bajo",
    "Costo": "-",
    "Descripción": "Inicio del viaje: Tramo Buenos Aires a San Pablo.",
    "Detalle": "Salida 16/02 23:55. Turkish TK15.",
    "NotaIA": "Escala técnica corta de 1h 40m. No suele requerir bajar del avión.",
    "LATLON": "-34.8150, -58.5348",
    "Image": "Link",
    "lat": -34.815,
    "lon": -58.5348,
    "imageUrl": "/thumbs/vuelo.svg",
    "shortDescription": "Inicio del viaje: Tramo Buenos Aires a San Pablo."
  },
  {
    "id": "san-pablo-vuelo-gru-eze",
    "Nombre": "Vuelo GRU - EZE",
    "Tipo": "Vuelo",
    "Horario": "Da Igual",
    "Ciudad": "San Pablo",
    "Tiempo": "3h 05m",
    "Esfuerzo": "Bajo",
    "Costo": "-",
    "Descripción": "Último tramo a casa.",
    "Detalle": "Salida 10/03 19:20. Llegada a EZE 22:25.",
    "NotaIA": "Escala técnica de 1h 35m en San Pablo.",
    "LATLON": "-23.4356, -46.4731",
    "Image": "Link",
    "lat": -23.4356,
    "lon": -46.4731,
    "imageUrl": "/thumbs/vuelo.svg",
    "shortDescription": "Último tramo a casa."
  },
  {
    "id": "san-pablo-vuelo-gru-ist",
    "Nombre": "Vuelo GRU - IST",
    "Tipo": "Vuelo",
    "Horario": "Da Igual",
    "Ciudad": "San Pablo",
    "Tiempo": "12h 25m",
    "Esfuerzo": "Medio",
    "Costo": "-",
    "Descripción": "Tramo largo hacia Estambul.",
    "Detalle": "Salida 17/02 04:10. Llegada a IST a las 22:35.",
    "NotaIA": "Prepárate para una escala larga de 16h 55m en Estambul.",
    "LATLON": "-23.4356, -46.4731",
    "Image": "Link",
    "lat": -23.4356,
    "lon": -46.4731,
    "imageUrl": "/thumbs/vuelo.svg",
    "shortDescription": "Tramo largo hacia Estambul."
  },
  {
    "id": "phuket-vuelo-hkt-bkk",
    "Nombre": "Vuelo HKT - BKK",
    "Tipo": "Vuelo",
    "Horario": "Da Igual",
    "Ciudad": "Phuket",
    "Tiempo": "1h 35m",
    "Esfuerzo": "Bajo",
    "Costo": "-",
    "Descripción": "Regreso a la capital para el cierre.",
    "Detalle": "Salida 07/03 10:00. Air Asia FD4125.",
    "NotaIA": "Traslado al hotel Column BKK estimado en 35-50 min.",
    "LATLON": "8.1132, 98.3076",
    "Image": "Link",
    "lat": 8.1132,
    "lon": 98.3076,
    "imageUrl": "/thumbs/vuelo.svg",
    "shortDescription": "Regreso a la capital para el cierre."
  },
  {
    "id": "estambul-vuelo-ist-bkk",
    "Nombre": "Vuelo IST - BKK",
    "Tipo": "Vuelo",
    "Horario": "Da Igual",
    "Ciudad": "Estambul",
    "Tiempo": "8h 50m",
    "Esfuerzo": "Medio",
    "Costo": "-",
    "Descripción": "Tramo final Estambul a Bangkok.",
    "Detalle": "Salida 18/02 15:30. Llegada a BKK el 19/02 04:20 AM.",
    "NotaIA": "Llegarás temprano a Bangkok; coordina con el hotel el \"Early Check-in\".",
    "LATLON": "13.6899, 100.7501",
    "Image": "Link",
    "lat": 13.6899,
    "lon": 100.7501,
    "imageUrl": "/thumbs/vuelo.svg",
    "shortDescription": "Tramo final Estambul a Bangkok."
  },
  {
    "id": "estambul-vuelo-ist-gru",
    "Nombre": "Vuelo IST - GRU",
    "Tipo": "Vuelo",
    "Horario": "Da Igual",
    "Ciudad": "Estambul",
    "Tiempo": "13h 45m",
    "Esfuerzo": "Alto",
    "Costo": "-",
    "Descripción": "Tramo largo de regreso.",
    "Detalle": "Salida 10/03 10:00. Turkish TK15. Escala en IST de 3h 55m.",
    "NotaIA": "Pide en BKK que etiqueten el equipaje hasta Buenos Aires (EZE).",
    "LATLON": "41.2752, 28.7519",
    "Image": "Link",
    "lat": 41.2752,
    "lon": 28.7519,
    "imageUrl": "/thumbs/vuelo.svg",
    "shortDescription": "Tramo largo de regreso."
  },
  {
    "id": "bkk-ist-vuelo-tg900-thai",
    "Nombre": "Vuelo TG900 (Thai)",
    "Tipo": "Vuelo",
    "Horario": "Mañana",
    "Ciudad": "BKK-IST",
    "Tiempo": "10h 20m",
    "Esfuerzo": "Bajo",
    "Costo": "-",
    "Descripción": "Vuelo de regreso Bangkok a Estambul.",
    "Detalle": "Salida 09/03/2026 a las 23:45 hs.",
    "NotaIA": "Pide en el counter que etiqueten tu maleta hasta EZE (Buenos Aires).",
    "LATLON": "13.6899, 100.7501",
    "Image": "Link",
    "lat": 13.6899,
    "lon": 100.7501,
    "imageUrl": "/thumbs/vuelo.svg",
    "shortDescription": "Vuelo de regreso Bangkok a Estambul."
  },
  {
    "id": "bangkok-wat-arun",
    "Nombre": "Wat Arun",
    "Tipo": "Visita",
    "Horario": "Tarde",
    "Ciudad": "Bangkok",
    "Tiempo": "1h",
    "Esfuerzo": "Medio",
    "Costo": "200 THB",
    "Descripción": "El Templo del Amanecer, icónico por su torre central decorada con porcelana.",
    "Detalle": "Cruza el río desde Wat Pho en el ferry público (5 THB). La subida a las torres es empinada. Atardecer increíble desde la orilla opuesta.",
    "NotaIA": "De noche se ilumina y es una de las fotos más famosas de Bangkok.",
    "LATLON": "13.7437, 100.4889",
    "Image": "Link",
    "lat": 13.7437,
    "lon": 100.4889,
    "imageUrl": "/thumbs/visita.svg",
    "shortDescription": "El Templo del Amanecer, icónico por su torre central decorada con porcelana."
  },
  {
    "id": "ayutthaya-wat-chaiwatthanaram",
    "Nombre": "Wat Chaiwatthanaram",
    "Tipo": "Visita",
    "Horario": "Da Igual",
    "Ciudad": "Ayutthaya",
    "Tiempo": "1.5h",
    "Esfuerzo": "Bajo",
    "Costo": "50 THB",
    "Descripción": "Templo de estilo Khmer junto al río.",
    "Detalle": "El más fotogénico de Ayutthaya. La luz del atardecer es espectacular sobre sus ruinas.",
    "NotaIA": "No se permite subir a las torres centrales por preservación.",
    "LATLON": "14.3435, 100.5418",
    "Image": "Link",
    "lat": 14.3435,
    "lon": 100.5418,
    "imageUrl": "/thumbs/visita.svg",
    "shortDescription": "Templo de estilo Khmer junto al río."
  },
  {
    "id": "phuket-wat-chalong-wat-chaiyathararam",
    "Nombre": "Wat Chalong (Wat Chaiyathararam)",
    "Tipo": "Visita",
    "Horario": "Mañana/Tarde",
    "Ciudad": "Phuket",
    "Tiempo": "1-1.5 hs",
    "Esfuerzo": "Bajo",
    "Costo": "Gratis",
    "Descripción": "Templo más importante de Phuket: arquitectura y detalles interiores muy fotogénicos.",
    "Detalle": "Ir fuera de horas pico. Vestimenta respetuosa. Suele estar abierto aprox. 08:00–17:00.",
    "NotaIA": "Buen complemento si hacés tour por el sur (Big Buddha/Promthep).",
    "LATLON": "7.846389, 98.336944",
    "Image": "Link",
    "lat": 7.846389,
    "lon": 98.336944,
    "imageUrl": "/thumbs/visita.svg",
    "shortDescription": "Templo más importante de Phuket: arquitectura y detalles interiores muy fotogénicos."
  },
  {
    "id": "chiang-mai-wat-chedi-luang",
    "Nombre": "Wat Chedi Luang",
    "Tipo": "Visita",
    "Horario": "Mañana/Tarde",
    "Ciudad": "Chiang Mai",
    "Tiempo": "1-1.5 hs",
    "Esfuerzo": "ºº",
    "Costo": "50 THB",
    "Descripción": "Templo clave del casco antiguo de Chiang Mai, con gran chedi histórico.",
    "Detalle": "Conviene temprano. Combina bien con paseo por el Old City y cafés cercanos.",
    "NotaIA": "Si vas un domingo, mirá si coincide con mercados/eventos alrededor del Old City.",
    "LATLON": "-",
    "Image": "Link",
    "lat": 18.787007,
    "lon": 98.986489,
    "imageUrl": "/thumbs/visita.svg",
    "shortDescription": "Templo clave del casco antiguo de Chiang Mai, con gran chedi histórico."
  },
  {
    "id": "ayutthaya-wat-mahathat",
    "Nombre": "Wat Mahathat",
    "Tipo": "Visita",
    "Horario": "Da Igual",
    "Ciudad": "Ayutthaya",
    "Tiempo": "1h",
    "Esfuerzo": "Bajo",
    "Costo": "50 THB",
    "Descripción": "Famoso por la cabeza de Buda entre raíces.",
    "Detalle": "El punto más icónico. Hay que agacharse para la foto (tu cabeza no puede estar más alta que la de Buda).",
    "NotaIA": "Ir muy temprano para evitar las hordas de buses de tour.",
    "LATLON": "14.3570, 100.5675",
    "Image": "Link",
    "lat": 14.357,
    "lon": 100.5675,
    "imageUrl": "/thumbs/visita.svg",
    "shortDescription": "Famoso por la cabeza de Buda entre raíces."
  },
  {
    "id": "bangkok-wat-paknam-mrt",
    "Nombre": "Wat Paknam MRT",
    "Tipo": "Transporte",
    "Horario": "Noche",
    "Ciudad": "Bangkok",
    "Tiempo": "30m",
    "Esfuerzo": "Bajo",
    "Costo": "30 THB",
    "Descripción": "Cómo llegar al Gran Buda de forma fácil y barata.",
    "Detalle": "Toma el metro (MRT Blue Line) hasta la estación Bang Phai. Camina 10 min o toma un mototaxi por 20 bahts.",
    "NotaIA": "Es la mejor opción para evitar los barcos caros.",
    "LATLON": "13.7206, 100.4727",
    "Image": "Link",
    "lat": 13.7206,
    "lon": 100.4727,
    "imageUrl": "/thumbs/transporte.svg",
    "shortDescription": "Cómo llegar al Gran Buda de forma fácil y barata."
  },
  {
    "id": "chiang-mai-wat-pha-lat-hidden-temple",
    "Nombre": "Wat Pha Lat (Hidden Temple)",
    "Tipo": "Visita",
    "Horario": "Mañana/Tarde",
    "Ciudad": "Chiang Mai",
    "Tiempo": "1.5-2.5 hs",
    "Esfuerzo": "Medio",
    "Costo": "Gratis",
    "Descripción": "Templo escondido en la selva en la ladera de Doi Suthep, accesible por caminata (Monks Trail) o taxi.",
    "Detalle": "Si lo hacés caminando: zapatillas + agua. Puede haber tramos resbaladizos si llovió.",
    "NotaIA": "Es un ‘templo sorpresa’: menos turismo, más naturaleza. Ideal si ya fuiste a Doi Suthep.",
    "LATLON": "18.799137, 98.933975",
    "Image": "Link",
    "lat": 18.799137,
    "lon": 98.933975,
    "imageUrl": "/thumbs/visita.svg",
    "shortDescription": "Templo escondido en la selva en la ladera de Doi Suthep, accesible por caminata (Monks Trail) o taxi."
  },
  {
    "id": "bangkok-wat-pho",
    "Nombre": "Wat Pho",
    "Tipo": "Visita",
    "Horario": "Mañana",
    "Ciudad": "Bangkok",
    "Tiempo": "1.5h",
    "Esfuerzo": "Bajo",
    "Costo": "300 THB",
    "Descripción": "Templo del Buda Reclinado más grande de Tailandia (46m).",
    "Detalle": "Famoso por sus pies de nácar y por ser la cuna del masaje tradicional. Está a pasos del Gran Palacio.",
    "NotaIA": "Si tienes tiempo, hazte un masaje aquí; es la escuela oficial del país.",
    "LATLON": "13.7465, 100.4933",
    "Image": "Link",
    "lat": 13.7465,
    "lon": 100.4933,
    "imageUrl": "/thumbs/visita.svg",
    "shortDescription": "Templo del Buda Reclinado más grande de Tailandia (46m)."
  },
  {
    "id": "chiang-mai-wat-phra-singh",
    "Nombre": "Wat Phra Singh",
    "Tipo": "Visita",
    "Horario": "Mañana/Tarde",
    "Ciudad": "Chiang Mai",
    "Tiempo": "1-1.5 hs",
    "Esfuerzo": "Bajo",
    "Costo": "20 THB",
    "Descripción": "Uno de los templos más importantes de Chiang Mai, famoso por su sala principal y detalles Lanna.",
    "Detalle": "Ideal en circuito Old City. Vestimenta respetuosa (hombros/rodillas).",
    "NotaIA": "Si te gustan templos “bien cuidados”, este suele impresionar.",
    "LATLON": "18.788750, 98.9812139",
    "Image": "Link",
    "lat": 18.78875,
    "lon": 98.9812139,
    "imageUrl": "/thumbs/visita.svg",
    "shortDescription": "Uno de los templos más importantes de Chiang Mai, famoso por su sala principal y detalles Lanna."
  },
  {
    "id": "chiang-mai-wat-phra-that-doi-suthep",
    "Nombre": "Wat Phra That Doi Suthep",
    "Tipo": "Visita",
    "Horario": "Mañana",
    "Ciudad": "Chiang Mai",
    "Tiempo": "3h",
    "Esfuerzo": "Medio",
    "Costo": "30 THB",
    "Descripción": "Templo sagrado en la montaña.",
    "Detalle": "306 escalones o funicular. Vista 360 de la ciudad.",
    "NotaIA": "Ir al atardecer para ver la ciudad iluminada.",
    "LATLON": "18.8050, 98.9215",
    "Image": "Link",
    "lat": 18.805,
    "lon": 98.9215,
    "imageUrl": "/thumbs/visita.svg",
    "shortDescription": "Templo sagrado en la montaña."
  },
  {
    "id": "chiang-rai-wat-rong-khun-blanco",
    "Nombre": "Wat Rong Khun (Blanco)",
    "Tipo": "Visita",
    "Horario": "Mañana",
    "Ciudad": "Chiang Rai",
    "Tiempo": "1.5h",
    "Esfuerzo": "Bajo",
    "Costo": "200 THB",
    "Descripción": "Obra de arte moderna en forma de templo.",
    "Detalle": "Blanco puro con espejos. Símbolo de Chiang Rai. Representa el ciclo de la vida y la muerte. No es un templo antiguo, sino una obra del artista Chalermchai.",
    "NotaIA": "Está a 3h de Chiang Mai; se suele hacer como excursión de día. Prohibido fotos dentro del edificio principal.",
    "LATLON": "19.8242, 99.7630",
    "Image": "Link",
    "lat": 19.8242,
    "lon": 99.763,
    "imageUrl": "/thumbs/visita.svg",
    "shortDescription": "Obra de arte moderna en forma de templo."
  },
  {
    "id": "chiang-rai-wat-rong-suea-ten-azul",
    "Nombre": "Wat Rong Suea Ten (Azul)",
    "Tipo": "Visita",
    "Horario": "Da Igual",
    "Ciudad": "Chiang Rai",
    "Tiempo": "1h",
    "Esfuerzo": "Bajo",
    "Costo": "Gratis",
    "Descripción": "Templo moderno con un azul eléctrico vibrante.",
    "Detalle": "Obra del discípulo del creador del Templo Blanco. El Buda blanco interior es impresionante.",
    "NotaIA": "Al ser gratis y visual, se llena rápido; ve temprano.",
    "LATLON": "19.9231, 99.8415",
    "Image": "Link",
    "lat": 19.9231,
    "lon": 99.8415,
    "imageUrl": "/thumbs/visita.svg",
    "shortDescription": "Templo moderno con un azul eléctrico vibrante."
  },
  {
    "id": "bangkok-wat-saket-golden-mount",
    "Nombre": "Wat Saket (Golden Mount)",
    "Tipo": "Visita",
    "Horario": "Mañana",
    "Ciudad": "Bangkok",
    "Tiempo": "1.5h",
    "Esfuerzo": "Medio",
    "Costo": "100 THB",
    "Descripción": "Templo en una colina con vista 360° de la ciudad vieja.",
    "Detalle": "Debes subir 300 escalones suaves rodeados de fuentes y vegetación. Arriba hay una estupa dorada icónica.",
    "NotaIA": "Ideal para ir justo antes del atardecer para ver caer el sol sobre Bangkok.",
    "LATLON": "13.7538, 100.5066",
    "Image": "Link",
    "lat": 13.7538,
    "lon": 100.5066,
    "imageUrl": "/thumbs/visita.svg",
    "shortDescription": "Templo en una colina con vista 360° de la ciudad vieja."
  },
  {
    "id": "nakhon-pathom-wat-samphran-dragon",
    "Nombre": "Wat Samphran (Dragón)",
    "Tipo": "Visita",
    "Horario": "Da Igual",
    "Ciudad": "Nakhon Pathom",
    "Tiempo": "2h",
    "Esfuerzo": "Medio",
    "Costo": "Gratis / 2€ (Dona)",
    "Descripción": "Torre de 17 pisos con un dragón gigante que la rodea.",
    "Detalle": "Puedes caminar por el interior del túnel que es el cuerpo del dragón para llegar a la cima. Es un templo menos turístico y muy visual para fotos.",
    "NotaIA": "Está a 1 hora de Bangkok; combina bien con el mercado de Maeklong.",
    "LATLON": "13.7348, 100.2173",
    "Image": "Link",
    "lat": 13.7348,
    "lon": 100.2173,
    "imageUrl": "/thumbs/visita.svg",
    "shortDescription": "Torre de 17 pisos con un dragón gigante que la rodea."
  },
  {
    "id": "bangkok-wat-traimit-buda-de-oro",
    "Nombre": "Wat Traimit (Buda de Oro)",
    "Tipo": "Visita",
    "Horario": "Da Igual",
    "Ciudad": "Bangkok",
    "Tiempo": "1h",
    "Esfuerzo": "Bajo",
    "Costo": "100 THB",
    "Descripción": "Estatua de oro macizo más grande del mundo.",
    "Detalle": "Pesa 5.5 toneladas. Es la puerta de entrada ideal para caminar luego hacia Chinatown.",
    "NotaIA": "Vestimenta respetuosa requerida.",
    "LATLON": "13.7377, 100.5134",
    "Image": "Link",
    "lat": 13.7377,
    "lon": 100.5134,
    "imageUrl": "/thumbs/visita.svg",
    "shortDescription": "Estatua de oro macizo más grande del mundo."
  },
  {
    "id": "bangkok-yaowarat-chinatown",
    "Nombre": "Yaowarat (Chinatown)",
    "Tipo": "Comida",
    "Horario": "Noche",
    "Ciudad": "Bangkok",
    "Tiempo": "2h",
    "Esfuerzo": "Medio",
    "Costo": "Variable",
    "Descripción": "El corazón gastronómico callejero de Bangkok.",
    "Detalle": "Ir de noche para ver los neones y comer en los puestos callejeros. Muy concurrido y caótico.",
    "NotaIA": "No te pierdas los bollos de crema (Bun) y la sopa de noodles de pimienta.",
    "LATLON": "13.7412, 100.5081",
    "Image": "Link",
    "lat": 13.7412,
    "lon": 100.5081,
    "imageUrl": "/thumbs/comida.svg",
    "shortDescription": "El corazón gastronómico callejero de Bangkok."
  },
  {
    "id": "chiang-mai-zoe-in-yellow",
    "Nombre": "Zoe in Yellow",
    "Tipo": "Vida Nocturna",
    "Horario": "Noche",
    "Ciudad": "Chiang Mai",
    "Tiempo": "3h",
    "Esfuerzo": "Bajo",
    "Costo": "Variable",
    "Descripción": "El bar más famoso del casco antiguo.",
    "Detalle": "Punto de encuentro de viajeros. Música variada y mucha gente joven.",
    "NotaIA": "Cierra relativamente temprano (00:00 - 01:00) por normativas locales.",
    "LATLON": "18.7905, 98.9902",
    "Image": "Link",
    "lat": 18.7905,
    "lon": 98.9902,
    "imageUrl": "/thumbs/vida-nocturna.svg",
    "shortDescription": "El bar más famoso del casco antiguo."
  }
]